지역,진출국가,관할무역관,기업명(국문),기업명(영문),주소,위도,경도,우편번호,진출형태,투자형태,모기업명,업종 대분류,업종 중분류
동남아대양주,인도네시아,수라바야,꼬린 부아나 안따르누사,PT.KORIN BUANA ANTARNUSA,"JL. MAJEEN SUNGKONO KOMPLEK DARMO PARK 1 BLOCK 3A,20, SURABAYA INDONESIA",-7.29145366160541,112.717263011042,60256,기타(현지설립),합작투자(95%),,H. 운수 및 창고업,
동남아대양주,인도네시아,수라바야,대우조선해양,"DAEWOO SHIPBUILDING & MARINE ENGINEERING CO., LTD.",.,,,53302,기타(기술 지원 센터),단독투자,대우조선해양,C. 제조업,기타 기계 및 장비 제조업
동남아대양주,인도네시아,수라바야,대웅인피온,PT.DAEWOONG-INFION,JL.RAYA KASRI NO.153 RT.02 DESA TAWANGREJO KECAMATAN PANDAAN,-7.64525122662221,112.691208724384,63113,생산법인,합작투자(55%),대웅제약,C. 제조업,의료용 물질 및 의약품 제조업
동남아대양주,인도네시아,수라바야,디엠씨 플라스틱 인도네시아,PT DMC PLASTIK INDONESIA,"DUSUN CERME, GAMPING, CAMPUR DARAT, KABUPATEN TULUNGAGUNG, JAWA TIMUR",-8.17494019184717,111.850021804157,66272,생산법인,단독투자,동민산업협동조합,C. 제조업,고무 및 플라스틱제품 제조업
동남아대양주,인도네시아,수라바야,콜트 인도네시아,PT.CORT INDONESIA,"KAWASAN BERIKAT NIP BLOK G5,6 NGORO MOJOKERTO JAWA TIMUR",-7.56496418566696,112.620358534725,61385,생산법인,단독투자,(주)콜텍,C. 제조업,기타 제품 제조업
동남아대양주,인도네시아,수라바야,피에스이,PT.PSE,"INDONESIA SURABAYA PERSADA BLOCK H-1 MOJOKERTO JAWA TIMUR,",-7.56215077436255,112.61711566199,61385,"생산법인, 판매법인, 기타(공장)",단독투자,,C. 제조업,"전자 부품, 컴퓨터, 영상, 음향 및 기통신장비 제조업"
동남아대양주,인도네시아,수라바야,피티 플라즈마,PT PLASMA NUTFAH MARIND PAPUA,"JL.RAYA MANDALA NO.333 MULI, MERAUKE, PAPUA, INDONESIA",-8.51278224997975,140.405280723028,99616,생산법인,단독투자,무림P&P,"A. 농업, 임업 및 어업",
동남아대양주,인도네시아,자카르타,하나글로벌,HANA GLOBAL,"LIPPO KARAWACI, BINONG, KEC. CURUG, TANGERANG, BANTEN, INDONESIA",-6.22668296646627,106.60712997081,15810,판매법인,단독투자,,G. 도매 및 소매업,
동남아대양주,인도네시아,자카르타,하나종금,HANA RISJAD,"WISMA GKBI 17TH SUITE 1702 JL. JEND. SUDIRMAN NO.28 JAKARTA PUSAT 10210, INDONESIA",-6.21747719315086,106.81294464308,10210,서비스법인,.,,K. 금융 및 보험업,
동남아대양주,인도네시아,자카르타,KEB하나은행,BANK KEB HANA INDONESIA,"(KPO) MANGKULUHUR CITY TOWER ONE, GROUND FLOOR, JLN. JEND. GATOT SUBROTO KAV. 1-3, JAKARTA 12930, INDONESIA",-6.22110703733823,106.814108903126,12930,서비스법인,.,KEB하나은행,K. 금융 및 보험업,
동남아대양주,인도네시아,자카르타,파트라SK,PATRA SK,"THE PLAZA OFFICE TOWER LV. 28, JAKARTA, INDONESIA",-6.19267565740498,106.822691216571,10350,생산법인,.,SK루브리컨츠,C. 제조업,"코크스, 연탄 및 석유정제품 제조업"
동남아대양주,인도네시아,자카르타,프리즘 누산타라 인터네셔널,PRISM NUSANTARA INTERNATIONAL,"GANDARIA 8 OFFICE TOWER 12TH FLOOR, JL.SULTAN ISKANDAR MODA, KEBAYORAN LAMA, JAKARTA, INDONESIA",-6.24283274588039,106.783200364981,12240,서비스법인,단독투자,SK E&S,"D. 전기, 가스, 증기 및 공기 조절 공급업",
동남아대양주,인도네시아,자카르타,조양모폴리삼성,CHOYANG MOPOLI SAMSUNG CHEMICAL INDONESIA,"JL. PULAU MENTAWAI, MEDAN INDUSTRIAL ESTATE (KIM) II, DESA SAENTIS, PERCUT SEI TUAN, DELI SERDANG, MEDAN, INDONESIA",3.67347042160216,98.6755009686276,20242,생산법인,.,,C. 제조업,화학 물질 및 화학제품 제조업 (의약품 제외)
동남아대양주,인도네시아,자카르타,판토스,PANTOS LOGISTIC INDONESIA,"KAWASAN INDUSTRI MM 2100 BLOK G, JALAN BALI NO. 1, GANDAMEKAR, CIKARANG BARAT, BEKASI, JAWA BARAT 17530, INDONESIA",-6.2950053591997,107.086690317577,17530,서비스법인,단독투자,,H. 운수 및 창고업,
동남아대양주,인도네시아,자카르타,케이티엔지인도네시아,KT&G INDONESIA,"NOBLE HOUSE 39TH FL. JL. DR. IDE ANAK AGUNG GDE AGUNG KAV. E 4 NO. 2, RT. 5 RW. 2, KUNINGAN TIMUR, SETIABUDI, JAKARTA SELATAN 12950, INDONESIA",-6.22809019029137,106.825335780325,12950,"생산법인, 판매법인",.,KT&G,G. 도매 및 소매업,
동남아대양주,인도네시아,자카르타,아이비케이인도네시아은행,BANK IBK INDONESIA,"WISMA GKBI, 19TH FL. JL. JEND. SUDIRMAN NO. 28, BENDUNGAN HILIR, TANAH ABANG, JAKARTA PUSAT 10210, INDONESIA",-6.21754170037402,106.81291908559,10210,서비스법인,.,,K. 금융 및 보험업,
동남아대양주,인도네시아,자카르타,위자야 인다 아바디 엔탈,WIJAYA INDAH ABADI ENTAL,"JL. AFRIKA NO. 02 KAWASAN INDUSTRI KRAKATAU POSCO KEL. KUBANGSARI, KEC. CIWANDAN CILEGON, INDONESIA",-6.01238497324347,105.979655036142,42443,생산법인,.,,C. 제조업,기타 기계 및 장비 제조업
동남아대양주,인도네시아,자카르타,크라카따우 포스코,KRAKATAU POSCO,"JL. AFRIKA NO.02 KRAKATAU POSCO INTEGRATED STEEL MILL AREA SAMANGRAYA, CITANGKIL, CILEGON BANTEN - 42443, INDONESIA",-6.22737077550608,106.808239004583,42443,생산법인,.,,B. 광업,
동남아대양주,인도네시아,자카르타,포스코아이씨티인도네시아,POSCO ICT INDONESIA,"BLOK GUNUNG PINANG, WANAYASA, KRAMATWATU, SERANG, BANTEN 42161, INDONESIA",-6.05314313356411,106.100339691962,42161,서비스법인,.,포스코ICT,"S. 협회 및 단체, 수리 및 기타 개인 서비스업",
동남아대양주,인도네시아,자카르타,포스코이엔씨인도네시아,POSCO E&C INDONESIA,"RATU PLAZA BUILDING 11F, JL.JEND.SUDIRMAN NO.09 JAKARTA 10270, INDONESIA",-6.22519419914934,106.812300922312,10270,서비스법인,.,포스코건설,F. 건설업,
동남아대양주,인도네시아,자카르타,포스코인도네시아인티,POSCO INDONESIA INTI,"PACIFIC CENTURY PLACE, 17TH FL. SCBD LOT 11A JL. JEND. SUDIRMAN KAV. 52-53, JAKARTA 12190, INDONESIA",-6.22784592134447,106.808399355194,12190,연락사무소,.,포스코,C. 제조업,기타 제품 제조업
동남아대양주,인도네시아,자카르타,한화상사,HANHWA CORPORATION,"SEQUIS BUILDING 9TH FL JL. JEND. SUDIRMAN KAV. 71 JAKARTA SELATAN 12190, INDONESIA",-6.22555701407675,106.807259933768,12190,판매법인,.,한화 상사,G. 도매 및 소매업,
동남아대양주,인도네시아,자카르타,한진인도네시아자야,HANJIN INDONESIA JAYA,"KAWASAN INDUSTRI MODERN CIKANDE JL. MODERN INDUSTRI III,4 CIKANDE SERANG, INDONESIA",-6.18816079586387,106.332488766714,42186,생산법인,.,한진공업,C. 제조업,기타 기계 및 장비 제조업
동남아대양주,인도네시아,자카르타,현대 파사드알루미늄 인도네시아,PT. HYUNDAI FACADE ALUMINIUM INDONESIA,"PINANGSIA KARAWACI OFFICE PARK BLOK B NO. 25 LIPPO VILLAGE TANGERANG BENTEN, INDONESIA",-6.22365079056619,106.619627637879,15139,서비스법인,M&A,,F. 건설업,
동남아대양주,인도네시아,자카르타,현대건설,HYUNDAI E&C,"OFFICE 8 BUILDING 32F, JALAN SENOPATI 08D SENAYAN SCBD LOT.28, KEBAYORAN BARU, JAKARTA 12190, INDONESIA",-6.22949579155977,106.805686184539,12190,해외지사,.,현대건설,F. 건설업,
동남아대양주,인도네시아,자카르타,현대공단,HYUNDAI INTI DEVELOPMENT,"GEDUNG CIMB NIAGA, 3 FLOOR JL. M.H THAMRIN, LIPPO CIKARANG BEKASI 17550, JAWA BARAT, INDONESIA",-6.33207670072075,107.135805264592,17550,서비스법인,.,현대종합상사,G. 도매 및 소매업,
동남아대양주,인도네시아,자카르타,현대모토매뉴팩튜링인도네시아,HYUNDAI MOTOR MANUFACTURING INDONESIA,"JL. SRIWIJAYA NO.16, CIBATU, CIKARANG SEL., BEKASI, JAWA BARAT 17530, INDONESIA",-6.33949575687106,107.153937082058,17530,생산법인,.,현대자동차,C. 제조업,자동차 및 트레일러 제조업
동남아대양주,인도네시아,자카르타,현대상선,HYUNDAI MERCHANT MARINE,"JL. ABDUL MUIS 50, GAMBIR, JAKARTA PUSAT, INDONESIA",-6.17626939255558,106.819592380207,10160,해외지사,.,현대상선,H. 운수 및 창고업,
동남아대양주,인도네시아,자카르타,현대알루미늄,HYUNDAI ALUMINUM,"JL. LETJEN S. PARMAN NO.KAV. 28, RT.3,RW.5, TJ. DUREN SELATAN, GROGOL PETAMBURAN, JAKARTA BARAT 11470, INDONESIA",-6.17684170507698,106.790356015617,11470,판매법인,단독투자,현대알루미늄,F. 건설업,
동남아대양주,인도네시아,자카르타,현대종합상사,HYUNDAI CORPORATION,"WISMA GKBI 38TH FLOOR, SUITE 3806, JL. JEND. SUDIRMAN KAV.28 JAKARTA 10210, INDONESIA",-6.21779837488068,106.813706240029,10210,해외지사,단독투자,현대종합상사,G. 도매 및 소매업,
동남아대양주,인도네시아,자카르타,현대중공업,HYUNDAI MACHINERY INDONESIA,"KAWASAN INDUSTRI SENTUL JALAN OLYMPIC RAYA B18, SENTUL BOGOR 16810, INDONESIA",-6.22815945989728,106.8057886894,16810,판매법인,.,현대중공업,G. 도매 및 소매업,
동남아대양주,인도네시아,자카르타,코오롱인더스트리 인도네시아,PT.KOLON.INA.JL,"RAYA SERANG KM80, SERANG BANTEN, INDONESIA",-6.1311423637176,106.265047728082,042182,생산법인,합작투자(50%),코오롱인더스트리㈜,.,
동남아대양주,인도네시아,자카르타,아시아나항공,ASIANA AIRLINES,"DISTRICT 8 TOWER PROSPERITY UNIT 19I  JL. JENDRAL SUDIRMAN, KAWASAN SCBD LOT.28 JAKARTA SELATAN",-6.22808420614389,106.807135063606,12190,해외지사,단독투자,아시아나항공㈜,H. 운수 및 창고업,
동남아대양주,인도네시아,자카르타,대한항공㈜ 자카르타지점,KOREAN AIR JAKARTA BRANCH,"9TH FL. MAYAPADA TOWER JL. JEND. SUDIRMAN KAV.28 JAKARTA SELATAN 12910, INDONESIA",-6.21366129634829,106.82004995507,12910,서비스법인,.,대한항공,H. 운수 및 창고업,
동남아대양주,인도네시아,자카르타,한솔인도,HANSOLL INDO,"KBN CAKUNG JL JAWA 8 BLOK C,16 CILINCING JAKARTA, INDONESIA",-6.14609336863343,106.930498851655,14140,생산법인,.,한솔섬유,C. 제조업,섬유제품 제조업 (의복 제외)
동남아대양주,인도네시아,자카르타,한솔인도,HANSOLL INDO JAVA,"NGEMPLAK RT006,RW002, RANDUSARI TERAS BOYOLALI, JAWA TENGAH, INDONESIA",-7.54149646612327,110.645515005206,57372,생산법인,.,한솔섬유,C. 제조업,섬유제품 제조업 (의복 제외)
동남아대양주,인도네시아,자카르타,한솔인도끌라뗀,HANSOLL INDO KLATEN,"JL.BUGISAN RAYA 01,06 PRAMBANAN KAT KLATEN, JAWA TENGAH, INDONESIA",-7.73646375000569,110.496713345577,57454,생산법인,.,,C. 제조업,섬유제품 제조업 (의복 제외)
동남아대양주,인도네시아,자카르타,한솔플리트스,HANSOL PLEATS,"JL PULO BUARAN BLOK U2 KAWASAN INDUSTRI PULO GAUNG JAKARTA TIMUR 13930., INDONESIA",-6.2128339006709,106.918241653198,13930,생산법인,.,,C. 제조업,섬유제품 제조업 (의복 제외)
동남아대양주,인도네시아,자카르타,(주) 세림 자야,PT. SELIM JAYA INDONESIA,"JL. JABABEKA IV E BLOK V NO. 78F, KAWASAN INDUSTRI CIKARANG, BEKASI, INDONESIA",-6.27084269090283,107.144809837305,17530,생산법인,단독투자,,C. 제조업,"전자 부품, 컴퓨터, 영상, 음향 및 기통신장비 제조업"
동남아대양주,인도네시아,자카르타,(주)ESA 플라신도 퍼르카사,ESA PLASINDO PERKASA,"KP. CEREWET. RT. 002,03 DS SUKADAMAI, KEC. CIKUPA TANGERANG, 15710, INDONESIA",-6.21676374698368,106.531902697643,15710,서비스법인,.,,"S. 협회 및 단체, 수리 및 기타 개인 서비스업",
동남아대양주,인도네시아,자카르타,(주)그랜드 케미컬,PT. GRAND CHEMICAL INDONESIA,"JL. RAYA SERANG KM 18.8 KAV 21A KAWASAN INDUSTRI PURATI KENCANA ALAM SUKANAGARA CIKUPA TANGERANG, INDONESIA",-6.22678191398868,106.528115507175,15170,생산법인,단독투자,,C. 제조업,화학 물질 및 화학제품 제조업 (의약품 제외)
동남아대양주,인도네시아,자카르타,(주)대백,PT. DAE BAEK,"JL SOKA PLOT 17 DELTA SILICON 3, KAWASAN LIPPO CIKARANG, CICAU, CIKARANG PUSAT, BEKASI 17530, INDONESIA",-6.36304743033327,107.148196237296,17530,생산법인,단독투자,,C. 제조업,자동차 및 트레일러 제조업
동남아대양주,인도네시아,자카르타,(주)뜨리까르야,TRIKARYA ALAM GROUP,"JL. BRIGJEN KATAMSO KM. 6, LOT B.601 TANJUNG UJANG, BATAM, RIAU 39421, INDONESIA",1.05942278783863,103.917182029138,39421,서비스법인,.,,"S. 협회 및 단체, 수리 및 기타 개인 서비스업",
동남아대양주,인도네시아,자카르타,(주)라자왈리 엘비에스,RAJAWALI LBS,"JL. TANJUNG DUREN RAYA NO.1A, RT.010 RW.002, KEL. TANJUNG DUREN UTARA, KEC.GROGOL PETAMBURAN, JAKARTA BARAT, DKI JAKARTA 11470, INDONESIA",-6.17345522406124,106.787445406444,11470,서비스법인,.,GR Telecom,J. 정보통신업,
동남아대양주,인도네시아,자카르타,(주)부산 레이져 인도네시아,PT. BUSAN LASER INDONESIA,"DELTA SILICON 2 JL.KALIANDRA BLOK F6,3D CICAU- CIKARANG PUSAT BEKASI, INDONESIA",-6.35531511487338,107.144352844501,17530,생산법인,단독투자,부산레이져 목형,C. 제조업,기타 제품 제조업
동남아대양주,인도네시아,자카르타,(주)비투팩,PT. BITUPACK,"JL RAYA SUKAMULYA KEC. CIKUPA TANGERANG 15710 BANTEN, INDONESIA",-6.24156162947766,106.506015447098,15710,생산법인,.,,C. 제조업,인쇄 및 기록매체 복제업
동남아대양주,인도네시아,자카르타,(주)삼인도,PT. SAMINDO,"BEKASI INTERNATIONAL INDUSTRIAL BLOCK C9 NO3-3A CIKARANG BEKASI 17550, INDONESIA",-6.33552022267411,107.128866775975,17550,생산법인,.,,C. 제조업,"전자 부품, 컴퓨터, 영상, 음향 및 기통신장비 제조업"
동남아대양주,인도네시아,자카르타,(주)시너르기 석세스 인도네시아,SINERGI SUKSES INDONESIA,"L'AVENUE OFFICE TOWER, 17 FLOOR UNIT B, JL. RAYA PASAR MINGGU KAV 16, PANCORAN, JAKARTA SELATAN 12780, INDONESIA",-6.24873315804781,106.844034365424,12780,"서비스법인, 판매법인",.,,G. 도매 및 소매업,
동남아대양주,인도네시아,자카르타,(주)신화 테크노 플랜트,PT. SHINHWA TECHNO PLANT,"KAWASAN INDUSTRI JABABEKA II JL. INDUSTRI SELATAN 8 BLOK EE-6P CIKARANG SELATAN 17530, INDONESIA",-6.30596561196464,107.153042414584,17530,기타,단독투자,,F. 건설업,
동남아대양주,인도네시아,자카르타,(주)유한 기전,PT. YOOHAN E & C INDONESIA,"JL.RUKO MAHKOTA MAS BLOK E.NO.25 CIKOKOL - TANGERANG, INDONESIA",-6.20807562196482,106.630233250644,15117,판매법인,단독투자,,G. 도매 및 소매업,
동남아대양주,인도네시아,자카르타,(주)은경엔지니어링,PT.EUNKYEONG ENGINEERING,"JL SAWO RAYA NO 19 RT04 RW02 KEL. CIBODASARI, CIBODAS, TANGERANG, BANTEN, INDONESIA",-6.21403180418367,106.607919091159,15138,판매법인,합작투자,,"M. 전문, 과학 및 기술 서비스업",
동남아대양주,인도네시아,자카르타,(주)인코바탐,INKO BATAM,"KOMP.HUP SENG DEVELOPMENT BLOK C NO.1, BATAM 29461, INDONESIA",1.12865416093932,104.05006559094,29461,서비스법인,.,,"N. 사업시설 관리, 사업 지원 및 임대 서비스업",
동남아대양주,인도네시아,자카르타,(주)정석테크 아바디,PT. JEONGSUK TECH ABADI,"JL. PALEM RAJA RAYA UTARA PERUMAHAN PALEM SEMI RUKO VANDA NO. V5, KEL. PANUNGGANGAN BARAT, KEC. CIBODAS, TANGERANG 15139, INDONESIA",-6.2204455507173,106.613313204225,15139,기타,단독투자,,"D. 전기, 가스, 증기 및 공기 조절 공급업",
동남아대양주,인도네시아,자카르타,(주)짐모아 마린 트랜스,ZIMMOAH MARINE TRANS,"KIRANA BOUTIQUE OFFICE, JL. KIRANA AVENUE 2 BLOK D2 NO. 10-11, KELAPA GADING, JAKARTA UTARA 14240, INDONESIA",-6.17393300060242,106.895062953746,14240,서비스법인,.,,H. 운수 및 창고업,
동남아대양주,인도네시아,자카르타,(주)찝따시네르지아시아,CIPTA SINERGI ASIA,"JL. HAJI TEN NO. 65 RT. 005 RW. 001, KEL. RAWAMANGUN, KEC. PULOGADUNG, JAKARTA TIMUR 13220, INDONESIA",-6.18954736176648,106.879312953193,13220,"생산법인, 판매법인",.,,C. 제조업,기타 제품 제조업
동남아대양주,인도네시아,자카르타,(주)찝따오리온메탈,CIPTA ORION METAL,"JL. PENJERNIHAN 4 NO. 22 BENHIL, JAKARTA 10210, INDONESIA",-6.16690987047905,107.056284730454,10210,생산법인,.,,C. 제조업,기타 제품 제조업
동남아대양주,인도네시아,자카르타,(주)타키온,TACHYON INDO,"JL.DARMAWANGSA NO.2 KOMPLEKS WIJAYA GRAND CENTER BLOK F41 LANTAI 1 KEBAYORAN BARU - JKT SELATAN 12160, INDONESIA",-6.25405131211758,106.799704171031,12160,서비스법인,.,,"S. 협회 및 단체, 수리 및 기타 개인 서비스업",
동남아대양주,인도네시아,자카르타,(주)토우고무인도네시아,PT TOU RUBBER INDONESIA,"KAWASAN INDUSTRY DELTA SILICON 5, JL.KENARI 1 BLOK G 1 NO.25, LIPPO CIKARANG, KAB.BEKASI 17530, INDONESIA",-6.35723089840327,107.160414569124,17530,생산법인,M&A,,C. 제조업,고무 및 플라스틱제품 제조업
동남아대양주,인도네시아,자카르타,(주)푸드코리아 인도네시아,FOOD KOREA INDONESIA,"JL. LEMPONGSARI RAYA, SUMBERAN, SARIHARJO, NGAGLIK, KAB. SLEMAN, D.I. YOGYAKARTA 55581, INDONESIA",-7.7427747474466,110.377797107589,55581,서비스법인,.,,"S. 협회 및 단체, 수리 및 기타 개인 서비스업",
동남아대양주,인도네시아,자카르타,(주)피엘에스,PT. PERTAMA LOGISTIC SERVICE,"JL. TROCADERO NO.107 PALAISE DE EUROPE LIPPO KARAWACI, PANUNGGANGAN BARAT TANGERANG, INDONESIA",-6.2221836014951,106.617515514567,15139,해외지사,단독투자,PLS,H. 운수 및 창고업,
동남아대양주,인도네시아,자카르타,(주)헤온즈코포레이션,HEONZ CORPORATION,"SOUTH QUARTER TOWER A, 3RD FL. UNIT EFGH, JL. R. A. KARTINI KAV. 8, JAKARTA SELATAN 12430, INDONESIA",-6.29416687279887,106.784516969112,12430,서비스법인,.,,"M. 전문, 과학 및 기술 서비스업",
동남아대양주,인도네시아,자카르타,DM 인도네시아,PT. DM INDONESIA,"KAWASAN INDUSTRI JABABEKA TAHAP I, JL. JABABEKA IVE BLOK V NO.78N PASIR GOMBONG, CIKARANG UTARA, INDONESIA",-6.27047762398927,107.145378883893,.,기타,단독투자,,C. 제조업,금속 가공제품 제조업 (기계 및 가구 제외)
동남아대양주,인도네시아,자카르타,F1-로직스,F1-LOGIX,"WISMA KORINDO, 9TH FL. JL. MT. HARYONO KAV. 62, PANCORAN, JAKARTA SELATAN 12780, INDONESIA",-6.24427427671686,106.844440728672,12780,서비스법인,.,,H. 운수 및 창고업,
동남아대양주,인도네시아,자카르타,GS건설,GS ENGINEERING & CONSTRUCTION,"WORLD TRADE CENTER(WTC) 2, LANTAI 10, JL. JEND. SUDIRMAN KAV. 29-31 JAKARTA 12920, INDONESIA",-6.21492722688839,106.821115010036,12920,해외지사,.,GS건설,F. 건설업,
동남아대양주,인도네시아,자카르타,KB손해보험인도네시아,KB INSURANCE INDONESIA,"SINARMAS LAND PLAZA TOWER 2 LT. 25 SUITE 2501, JL. MH THAMRIN 51 JAKARTA PUSAT, INDONESIA",-6.21127159836123,106.818893866438,10350,서비스법인,.,KB손해보험,K. 금융 및 보험업,
동남아대양주,인도네시아,자카르타,KEB하나은행,BANK KEB HANA INDONESIA,"(KPO) MANGKULUHUR CITY TOWER ONE, GROUND FLOOR, JLN. JEND. GATOT SUBROTO KAV. 1-3, JAKARTA 12930, INDONESIA",-6.22055125382842,106.813970362493,12930,서비스법인,.,KEB하나은행,K. 금융 및 보험업,
동남아대양주,인도네시아,자카르타,LG상사,LG INTERNATIONAL CORP.,"TCC BATAVIA BULDING TOWER ONE, 18TH FLOOR JL. KH. MANSYUR KAV.126 CENTRAL JAKARTA 10220, INDONESIA",-6.21073601812687,106.815439488913,10220,생산법인,단독투자,LG상사,B. 광업,
동남아대양주,인도네시아,자카르타,LG이노텍 인도네시아,LG INNOTEK CORP.,"BEKASI INTERNATIONAL INDUSTRI ESTATE BLOCK C8 NO12-12A LEMAHABANG, BEKASI TIMUR 17550, JAWA BARAT, INDONESIA",-6.22531633087792,107.043640570537,17550,생산법인,.,LG이노텍,C. 제조업,"전자 부품, 컴퓨터, 영상, 음향 및 기통신장비 제조업"
동남아대양주,인도네시아,자카르타,LG전자(주),LG ELECTRONICS INDONESIA,"GANDARIA 8 OFFICE TOWER, 29TH & 31ST FL. JL. SULTAN ISKANDAR MUDA, KEBAYORAN LAMA, JAKARTA SELATAN 12240, INDONESIA",-6.24272600020127,106.783371961153,12240,생산법인,.,LG전자,C. 제조업,"전자 부품, 컴퓨터, 영상, 음향 및 기통신장비 제조업"
동남아대양주,인도네시아,자카르타,LG화학,LG CHEM,"THE CITY CENTER (TCC) BATAVIA, TOWER ONE, 18FI. 02 B, JI. KH. MAS MANSYUR KAV. 126. JAKARTA PUSAT 10220, INDONESIA",-6.21111627012465,106.815812240883,10220,연락사무소,.,LG화학,C. 제조업,"코크스, 연탄 및 석유정제품 제조업"
동남아대양주,인도네시아,자카르타,LS에이지에스,LSAGS,"REVENUE TOWER FLOOR 15, DISTRICT 8, LOT 13 SCBD JL, JEND. SUDIRMAN KAV 52-53 JAKARTA SELATAN 12190, INDONESIA",-6.22731395508588,106.807227761152,12190,생산법인,.,LS전선,C. 제조업,전기장비 제조업
동남아대양주,인도네시아,자카르타,LS일렉트릭(자카르타),LS ELECTRIC JAKARTA OFFICE,"APL TOWER LANTAI 10 UNIT 3, JL. LETJEN S. PARMAN KAV 28 JAKARTA BARAT 11470, INDONESIA",-6.29542675592746,106.815524683898,11470,생산법인,.,LS전선,C. 제조업,전기장비 제조업
동남아대양주,인도네시아,자카르타,PT. 씨에스에스,PT . CSS,"JL. RAYA SERANG, SUMUR BANDUNG, JAYANTI, TANGERANG, BANTEN 15610, INDONESIA",-6.21453729359009,106.398010481347,15610,판매법인,M&A,,"D. 전기, 가스, 증기 및 공기 조절 공급업",
동남아대양주,인도네시아,자카르타,SK네트웍스인도네시아,SK NETWORKS INDONESIA,"TREASURY TOWER 25TH FLOOR SUITE 25A, DISTRICT 8 SUDIMAN CENTRAL BUSINESS DISTRICT LOT 28 JL. JENDRAL SUDIMAN KAV. 52-53, JAKARTA 12190, INDONESIA",-6.22820694863217,106.806752068543,12190,서비스법인,.,SK네트웍스,H. 운수 및 창고업,
동남아대양주,인도네시아,자카르타,SK이엔에스,PRISM NUSANTARA INTERNATIONAL,"GANDARIA 8 OFFICE TOWER, 12FL. UNIT I, JL. SULTAN ISKANDAR MUDA, KEBAYORAN LAMA, JAKARTA SELATAN 12240, INDONESIA",-6.24370719910625,106.783114469101,12240,서비스법인,.,SK E&S,"D. 전기, 가스, 증기 및 공기 조절 공급업",
동남아대양주,인도네시아,자카르타,SM삼환기업,SAMWHAN CORP.,"JL. GATOT SUBROTO NO.405, RT.1,RW.3, KUNINGAN TIMUR, KEC. SETIABUDI, JAKARTA SELATAN, DKI JAKARTA 12950, INDONESIA",-6.24173526922795,106.83670560053,12950,해외지사,.,SM삼환기업,F. 건설업,
동남아대양주,인도네시아,자카르타,ST인터내셔널,ST INTERNATIONAL INDONESIA,"MULIA TOWER, SUITE 1609, 16TH FLOOR, JL. JEND GATOT SUBROTO KAV, 9-11 JAKARTA 12930, INDONESIA",-6.19121136605352,106.768163876484,12930,생산법인,.,삼탄,B. 광업,
동남아대양주,인도네시아,자카르타,가나다막무르자야,GANADA MAKMUR JAYA,"JL. MAYOR OKING JAYA ATMAJAYA NO. 88A RT.003,RW.001 CIRIMEKAR CIBINONG, BOGOR, JAWA BARAT, INDONESIA",-6.48014219072391,106.868768253252,16918,생산법인,.,,C. 제조업,섬유제품 제조업 (의복 제외)
동남아대양주,인도네시아,자카르타,가루다 인다자야,GARUDA INDAH JAYA (GARUDA INKO),"JL. PEMDA TIGARAKSA KAWASAN MILLENIUM 11A BLOK F4. NO 10 PEUSAR PANONGAN TANGERANG, INDONESIA",-6.31439986406593,106.769570438432,15710,생산법인,.,,C. 제조업,"가죽, 가방 및 신발 제조업"
동남아대양주,인도네시아,자카르타,가야 인다 카리스마,GAYA INDAH KHARISMA,"KAWASAN INDUSTRI JL. RAYA MOCH. TOHA KM. 4, PENGASINAN, KEL. PERIUK, KEC. PERIUK TANGERANG, BANTEN 15131, INDONESIA",-6.16399666697592,106.600155784428,15131,생산법인,.,,C. 제조업,섬유제품 제조업 (의복 제외)
동남아대양주,인도네시아,자카르타,가야인도네시아,GAYA INDONESIA,"JL. WARINGIN KURUNG KP. CIKODAG DESA. HARJATANI KEC. KRAMATWATU, KAB. SERANG, BANTEN, INDONESIA",-6.06680120730822,106.064274003316,42161,생산법인,.,,C. 제조업,가구 제조업
동남아대양주,인도네시아,자카르타,가자 뿌티 엘라스틱,GAJAH PUTIH ELASTIC,"JL. MANIS II NO. 11 KM. 8, 5 DESA MANIS JAYA JATIUWUNG TANGERANG 15136, INDONESIA",-6.21450855329496,106.574059491275,15136,생산법인,.,,C. 제조업,고무 및 플라스틱제품 제조업
동남아대양주,인도네시아,자카르타,가자투어,GAJAH TOUR DUNIA,GEDUNG TIFA JAKARTA SELATAN,-6.2354348003158,106.820659461151,12710,.,.,,.,
동남아대양주,인도네시아,자카르타,가치 자야,GACHI JAYA,"JL LETJEND. SARWO EDHIE WIBOWO, NO. 105, PLAMONGANSARI, SEMARANG, JAWA TENGAH, 50139, INDONESIA",-7.1883583078895,", 110.44452849810008",50139,생산법인,.,,C. 제조업,"펄프, 종이 및 종이제품 제조업"
동남아대양주,인도네시아,자카르타,건설공제조합,CONSTRUCTION GUARANTEE COOPERATIVE KOREA,"SEQUIS CENTER 10TH FLOOR JL. JENDRAL SUDIRMAN NO.71, JAKARTA, 12190, INDONESIA",-6.22488258687353,106.806613584487,12190,서비스법인,.,Construction Guarantee,K. 금융 및 보험업,
동남아대양주,인도네시아,자카르타,건영전기,KUNYOUNG INDONESIA JAYA,"RUKO SENTRA CIKARANG, JL. RAYA CIKARANG, BLOCK C-11 KAV. 125, SERTAJAYA, CIKARANG TIM., BEKASI, JAWA BARAT 17530, INDONESIA",-6.3688392972531,106.776920415152,17530,서비스법인,.,,"M. 전문, 과학 및 기술 서비스업",
동남아대양주,인도네시아,자카르타,걸리버여행사,GULLIVER TOUR & TRAVEL,"JL. NUSA INDAH RAYA BLOK W NO.12 JAKA SETIA BEKASI, INDONESIA",-6.25638477370661,106.972938127907,17147,서비스법인,.,,"N. 사업시설 관리, 사업 지원 및 임대 서비스업",
동남아대양주,인도네시아,자카르타,게상 인도,GHE SANG INDO,"JL. RAYA SERANG KM. 11 NO. 1 KP BULAKAN DS. BITUNG JAYA KEC. CIKUPA TANGERANG, INDONESIA",-6.23205127691334,106.538840284441,15710,생산법인,.,,C. 제조업,섬유제품 제조업 (의복 제외)
동남아대양주,인도네시아,자카르타,겜마 월드 인도네시아,GEMMA WORLD INDONESIA,"RUKO BA 3 NO.29 RUKO 1B JL. BOULEVARD RAYA GADING SERPONG, TANGERANG 15810, INDONESIA",-6.24357453439052,106.613349242958,15810,판매법인,.,,G. 도매 및 소매업,
동남아대양주,인도네시아,자카르타,경상남도(자카르타),GYEONGSANGNAMDO JAKARTA,"WISMA GKBI, SUITE 801A, JL. JEND. SUDIRMAN KAV. 28 JAKARTA 10210, INDONESIA",-6.21772511149639,106.813661634796,10210,기타,.,경남도청,U. 국제 및 외국기관,
동남아대양주,인도네시아,자카르타,경상북도(자카르타),GYEONGSANGBUKDO JAKARTA,"GD ARTHA GRAHA, 6TH FL. SUITE 8, JL. JEND. SUDIRMAN KAV. 52-53 JAKARTA SELATAN 12950, INDONESIA",-6.22485743651352,106.811480010992,12950,기타,.,,U. 국제 및 외국기관,
동남아대양주,인도네시아,자카르타,경원센투리코라이르,KYUNGWON CENTURY KORAIR,"JL .RAYA SERANG KM 12 DESA BUNDER, CIKUPA, TANGERANG 15710, INDONESIA",-6.35848308214721,107.141197032966,15710,생산법인,.,경원콤프레샤,C. 제조업,기타 기계 및 장비 제조업
동남아대양주,인도네시아,자카르타,경형 인도네시아,KYUNG HEUNG INDONESIA,"JL. RAYA SERANG KM 17, 8 DESA BOJONG, CIKUPA, TANGERANG 15710, INDONESIA",-6.22026533945979,106.499393314567,15710,생산법인,.,,C. 제조업,기타 제품 제조업
동남아대양주,인도네시아,자카르타,경화인도네시아,KYOUNG HWA INDONESIA,"JL. INDUSTRI RAYA III AB NO.1 KOMPLEK FACTO(BLOK E NO.3) DESA BUNDER, CIKUPA, TANGERANG, INDONESIA",-6.1967637425814,106.553165061144,15710,생산법인,.,경화,C. 제조업,인쇄 및 기록매체 복제업
동남아대양주,인도네시아,자카르타,고려 띠무르 인두스트리,KORYO TIMUR INDUSTRY,"KAWASAN INDUSTRI PURATI KENCANA ALAM (BONEN) JL. RAYA SERANG KM. 19 NO. 7B, DS. SUKANAGARA, CIKUPA TANGERANG 15710, INDONESIA",-6.20746745568789,106.493880767983,15710,생산법인,.,,C. 제조업,기타 제품 제조업
동남아대양주,인도네시아,자카르타,고려 뿌스피타 인도네시아,KORYO PUSPITA INDONESIA,"JL. RAYA KARANGJATI KM 26, UNGARAN, SEMARANG 50552, INDONESIA",-7.1778025387331,110.419781780741,50552,생산법인,.,,C. 제조업,"가죽, 가방 및 신발 제조업"
동남아대양주,인도네시아,자카르타,고리 글로발 인도네시아,GORI GLOBAL INDONESIA,"JL. RAYA GUNUNG SINDUR NO. 7 CURUG, GUNUNG SINDUR, BOGOR, JAWA BARAT 16340, INDONESIA",-6.40928498608058,106.726771299263,16340,생산법인,.,,C. 제조업,섬유제품 제조업 (의복 제외)
동남아대양주,인도네시아,자카르타,골던 코레아 카리스마,GOLDEN KOREA KHARISMA,"JL. RAYA PARUNG PANJANG KP.BOJONG RT.02 RW.02 KEMUNING KEC.LEGOK TANGERANG - BANTEN, INDONESIA",-6.32004695536075,106.580964742007,15820,생산법인,M&A,,C. 제조업,기타 기계 및 장비 제조업
동남아대양주,인도네시아,자카르타,골프존 찔레곤,GOLFZON CILEGON,"KOMPLEK GREEN MEGA BLOK A2 NO. 06-07 CILEGON, BANTEN 42426, INDONESIA",-6.02948208710187,106.056981489538,42426,서비스법인,.,,"N. 사업시설 관리, 사업 지원 및 임대 서비스업",
동남아대양주,인도네시아,자카르타,광덕월드와이드,KWANGDUK WORLDWIDE,"JL RAYA CIPEUNDEUY RW 04,06 CIKALONG, BANDUNG BARAT, INDONESIA",-6.73545037402354,107.376153700996,40556,생산법인,.,부림광덕,C. 제조업,섬유제품 제조업 (의복 제외)
동남아대양주,인도네시아,자카르타,광림와이에이취인다,KWANGLIM YH INDAH,"JL.RAYA PAGADEN SUBANG GEMBOR II RT 18,06 KEC. PAGADEN SUBANG JAWA BARAT 41252, INDONESIA","-1.4591842096386571, 109.52540523796532",109.525405237965,41252,생산법인,.,광림무역,C. 제조업,섬유제품 제조업 (의복 제외)
동남아대양주,인도네시아,자카르타,광진인도네시아,KWANG JIN INDONESIA,"KAWASAN INDUSTRI JABABEKA BLOK C-17Y CIKARANG, BEKASI, INDONESIA","-6.281631866054228, 107.14846011875107",107.148460118751,17141,생산법인,.,,C. 제조업,금속 가공제품 제조업 (기계 및 가구 제외)
동남아대양주,인도네시아,자카르타,구눙살락수까부미,GUNUNG SALAK SUKABUMI,"JL.BABAKAN PASIR DALEM DESA BABAKAN PARI KEC CIDAHU KAB SUKABUMI JAWA BARAT 43358, INDONESIA","-6.795097638413822, 106.76718210541057",106.76718210541,43358,생산법인,.,,C. 제조업,섬유제품 제조업 (의복 제외)
동남아대양주,인도네시아,자카르타,구눙아바디,GUNUNG ABADI,"JL. SULAWESI BLOK D-45B, KAWASAN BERIKAT NUSANTARA, JL. RAYA CAKUNG CILINCING - JAKARTA UTARA, INDONESIA","-0.9319059662278123, 120.49355302304114",120.493553023041,14140,생산법인,.,,C. 제조업,섬유제품 제조업 (의복 제외)
동남아대양주,인도네시아,자카르타,국가철도공단 인니지사,KOREA NATIONAL RAILWAY INDONESIA OFFICE,"TREASURY TOWER DISTRICT 8, JAKARTA",-6.22790832457704,106.806443037859,12190,"해외지사, 기타(건설면허취득)",.,한국철도시설공단,.,
동남아대양주,인도네시아,자카르타,그라프,GRAPH,"JL. TB SIMATUPANG PONDOK INDAH PLAZA 3 BLOK D 01 JAKARTA SELATAN, INDONESIA",-6.28539931963344,106.776282888291,12310,서비스법인,.,,P. 교육서비스업,
동남아대양주,인도네시아,자카르타,그린 네이쳐 팜,PT. GREEN NATURE FARM,"PLAZA PALLAIS DE EUROPE JL. TROCADERO NO.90, INDONESIA",-6.22180259318343,106.61738795714,15139,서비스법인,합작투자,,G. 도매 및 소매업,
동남아대양주,인도네시아,자카르타,그린글러브인도네시아,GREEN GLOVES INDONESIA,"JL. PILANGSARI RT 019 RW 008 GONDANG, KEBONARUM, KLATEN, JAWA TENGAH, INDONESIA",-7.71488747373026,110.569530909946,57486,생산법인,.,,C. 제조업,섬유제품 제조업 (의복 제외)
동남아대양주,인도네시아,자카르타,그린비즈니스센터,GREEN BUSINESS CENTER,"SMESCO TOWER 6TH FL., JL. JEND. GATOT SUBROTO KAV. 94, JAKARTA SELATAN 12780, INDONESIA",-6.24144569051185,106.836284895099,12780,기타,.,,U. 국제 및 외국기관,
동남아대양주,인도네시아,자카르타,그린텍스 인도네시아 우따마,GREENTEX INDONESIA UTAMA,"JL. SUMATERA BLOCK E-12A, KBN CAKUNG, JAKARTA UTARA, INDONESIA",-6.14573523829965,106.936777273157,14140,생산법인,.,,C. 제조업,섬유제품 제조업 (의복 제외)
동남아대양주,인도네시아,자카르타,그린프로프르티,GREEN PROPERTY,"WISMA AMEX, 4TH FL. JL. MELAWAI RAYA NO. 7 JAKARTA SELATAN 12160, INDONESIA",-6.24566361513046,106.802274249076,12160,서비스법인,.,,L. 부동산업,
동남아대양주,인도네시아,자카르타,그밀랑 카르야 만디리,GEMILANG KARYA MANDIRI,"KOMP.RUKO TAMAN CILEGON BLOK A NO.43 CILEGON BANTEN 42413, INDONESIA",-6.01625579634628,106.083676391219,42413,서비스법인,.,,F. 건설업,
동남아대양주,인도네시아,자카르타,극동 퍼르다나 물리아,KUKDONG PERDANA MULIA,"JL. RAYA SERANG KM 16.8 KP. CIHIDEUNG RT. 002,002DESA TALAGA, KEC. CIKUPA - KAB. TANGERANG 15710, INDONESIA",-6.22227077135102,106.545769990385,15710,생산법인,.,,C. 제조업,"가죽, 가방 및 신발 제조업"
동남아대양주,인도네시아,자카르타,극동인터네셔날스마랑(스마랑가먼트),SEMARANG GARMENT,"JL. SOEKARNO HATTA KM.25 DS. WUJIL KEC. BREGAS KAB. SEMARANG JAWA TENGAH, INDONESIA",-7.17181759071798,110.41554714462,50552,생산법인,.,국동,C. 제조업,섬유제품 제조업 (의복 제외)
동남아대양주,인도네시아,자카르타,글로리텍스타일인도네시아,GLORY TEXTILE INDONESIA,"JL. CIPAMOKOLAN, RANCACILI, RANCASARI, DERWATI NO. 179, BANDUNG, INDONESIA",-6.95842402891601,107.677386499663,40292,생산법인,.,,C. 제조업,섬유제품 제조업 (의복 제외)
동남아대양주,인도네시아,자카르타,글로벌 메탈 인두스트리,GLOBAL METAL INDUSTRI,"JL. RAYA CURUG KM.3 NO.26 DESA KADU, CURUG, TANGERANG 15810, INDONESIA",-6.24553995444673,106.565112279758,15810,생산법인,.,,C. 제조업,기타 제품 제조업
동남아대양주,인도네시아,자카르타,글로벌밧데리인도네시아,GLOBAL BATTERY INDONESIA,"KAWASAN INDUSTRI DELTA SILICON 5 JL. CENDANA RAYA BLOK G5 NO. 5 KAV. 9 LIPPO, SERTAJAYA, KEC. CIKARANG TIM., BEKASI, JAWA BARAT 17530, INDONESIA",-6.35528246557596,107.160752784833,17530,생산법인,.,"Global Battery CO., LTD.",C. 제조업,기타 제품 제조업
동남아대양주,인도네시아,자카르타,글로벌쎈터,GLOBAL CENTER (CONSULTING),"RUKO PINANGSIA BLOK E NO. 18 LIPPO KARAWACI TANGERANG, INDONESIA",-6.22124979955512,106.73598692288,15138,서비스법인,.,,"M. 전문, 과학 및 기술 서비스업",
동남아대양주,인도네시아,자카르타,글로벌쳄,GLOBAL CHEM INTERNATIONAL,"JL. SELAYAR 1 BLOK H10 MEKAR WANGI KAWASAN INDUSTRI MM 2100, INDONESIA",-6.31586187033467,107.101638019917,17530,판매법인,.,,G. 도매 및 소매업,
동남아대양주,인도네시아,자카르타,글로벌화이버인도네시아,GLOBAL FIBERINDO,"JL. PUTRA UTAMA NO.11 PASAR KEMIS, TANGERANG, INDONESIA",-6.18462423237199,106.532138329502,15560,생산법인,.,,C. 제조업,기타 제품 제조업
동남아대양주,인도네시아,자카르타,금강 현대,KUMGANG HYUNDAI,"MENDRISIO 3 BLOK C NO 31 GADING SERPONG TANGERANG, INDONESIA",-6.24232576730517,106.623569443926,15810,생산법인,.,,C. 제조업,기타 제품 제조업
동남아대양주,인도네시아,자카르타,금강공업 인도네시아,KUMKANG KIND,"WISMA SLIPI, LETJEN S. PARMAN NO.12, KEMANGGISAN, PALMERAH, JAKARTA BARAT 11480, INDONESIA",-6.18605331633383,106.79596644046,11480,생산법인,.,금강공업,C. 제조업,기타 제품 제조업
동남아대양주,인도네시아,자카르타,금강인도네시아,KUMKANG INDONESIA,"JL. GEMBOR RAYA, PASIR JAYA, JATIUWUNG, TANGERANG-BANTEN 15135, INDONESIA",-6.17753057805995,106.569510721709,15135,생산법인,.,금강,C. 제조업,"가죽, 가방 및 신발 제조업"
동남아대양주,인도네시아,자카르타,금강테크인도네시아,KUMKANG TECH INDONESIA,"KAWASAN INDUSTRI PURATI KENCANA ALAM, JALAN RAYA SERANG KM. 18.8 KAV.VIII-A, SUKA NEGARA, CIKUPA, TANGERANG 15710 BANTEN, INDONESIA",-6.20539801456941,106.496935487291,15710,생산법인,.,,C. 제조업,섬유제품 제조업 (의복 제외)
동남아대양주,인도네시아,자카르타,금광 섬유 인도네시아,KEUMKANG SEMYU INDONESIA,"JL. IMAM BONJOL KM 2, 8 NO. 228 KARAWACI TANGERANG, INDONESIA",-6.20700334599679,106.619030555983,15115,생산법인,.,,C. 제조업,섬유제품 제조업 (의복 제외)
동남아대양주,인도네시아,자카르타,금성 시나르 아바디,KEUM SUNG SINAR ABADI,"JL.RAYA CURUG KP. POS BITUNG RT 019 RW 004 KADU CURUG KAB. TANGERANG 15810, INDONESIA",-6.20286044674757,106.566694785086,15810,생산법인,.,,C. 제조업,"가죽, 가방 및 신발 제조업"
동남아대양주,인도네시아,자카르타,금천인도,GEUM CHEON INDO,"JL. RAYA SERANG KM. 12, RT 01 RW 05, SUKADAMAI, CIKUPA, TANGERANG, BANTEN, INDONESIA",-6.21412593903053,106.539471282415,15710,생산법인,.,,C. 제조업,금속 가공제품 제조업 (기계 및 가구 제외)
동남아대양주,인도네시아,자카르타,금호석유화학,KOREA KUMHO PETROCHEMICAL,"MENARA JAMSOSTEK 3RD FL JL. GATOT SUBROTO NO.38 JAKARTA SELATAN 12710, INDONESIA",-6.23304197041121,106.821608555505,12710,연락사무소,.,금호석유화학,B. 광업,
동남아대양주,인도네시아,자카르타,기도물리아인도네시아,KIDO MULIA INDONESIA,"JL.RAYA PANTURA CIMOHONG RT.03 RW.003 CIMOHONG, BULAKAMBA, KAB BREBES, JAWA TENGAH 52253, INDONESIA",-6.87103989136718,108.906125049076,52253,생산법인,.,,C. 제조업,섬유제품 제조업 (의복 제외)
동남아대양주,인도네시아,자카르타,기도자야,KIDO JAYA,"JL. RAYA PANCAWATI KLARI KARAWANG JAWA BARAT, INDONESIA",-6.3682765318218,107.389063001634,41371,생산법인,.,기도산업,C. 제조업,섬유제품 제조업 (의복 제외)
동남아대양주,인도네시아,자카르타,까랑마스웅굴,KARANGMAS UNGGUL,"JL. RAYA NAROGONG PANGKALAN 5, CIKIWUL, BANTAR GEBANG, BEKASI 17152, INDONESIA",-6.34803221084135,106.984656200072,17152,서비스법인,.,,F. 건설업,
동남아대양주,인도네시아,자카르타,까랑마스웅굴,KARANGMAS UNGGUL,"JL. GELORA VI. NO 131 PALMERAH SELATAN, JAKARTA PUSAT 10270, INDONESIA",-6.20723656051315,106.796304864417,10270,서비스법인,.,,F. 건설업,
동남아대양주,인도네시아,자카르타,까르야트리아바디,KARYA TRI ABADI,"JL RAYA CUKANG GALIH KM 1, 8 NO. 118 RT,RW 003,02 DESA CUKANG GALIH, KEC. CURUG, KAB. TANGERANG, INDONESIA",-6.250744039137,106.552841725664,15810,생산법인,.,,C. 제조업,섬유제품 제조업 (의복 제외)
동남아대양주,인도네시아,자카르타,까르야트리아바디,KARYA TRI ABADI II,"DSN . PANCAWATI RT.004,01 DESA PANCAWATI KEC. KLARI KARAWANG 41371, INDONESIA",-6.36868407939984,107.388974799145,41371,생산법인,.,,C. 제조업,인쇄 및 기록매체 복제업
동남아대양주,인도네시아,자카르타,꼬띠,KOREA ORIENTAL TECHNOLOGI INDONESIA,"JL .JABABEKA 4, BLOK B 11, KAWASAN INDUSTRI JABABEKA CIKARANG BEKASI, INDONESIA",-6.34245418084248,107.155143883541,17530,생산법인,.,,C. 제조업,고무 및 플라스틱제품 제조업
동남아대양주,인도네시아,자카르타,끈차나 뿌트라 자야,KENCANA PUTRA JAYA,"JL. RAYA LEGOK, DESA CIJANTRA, PAGEDANGAN, TANGERANG 15820, INDONESIA",-6.27672826383593,106.596451247173,15820,생산법인,.,,C. 제조업,인쇄 및 기록매체 복제업
동남아대양주,인도네시아,자카르타,끈차나 에스와이 빌드,KENCANA SY BUILD 1,"KENCANA TOWER LT.3 BUSINESS PARK. KEBON JERUK JL.MERUYA ILIR RAYA NO.88 JAKARTA BARAT 11620, INDONESIA",-6.19762745107904,106.761995693105,11620,생산법인,.,,C. 제조업,기타 제품 제조업
동남아대양주,인도네시아,자카르타,끈차나 에스와이 빌드,KENCANA SY BUILD 2,"JL. ARYA JAYA SANTIKA KAMPUNG PASIR NANGKA RT001,RW002, DESA PASIR NANGKA TIGARAKSA, TANGERANG, INDONESIA",-6.24218375977525,106.468746310833,15720,생산법인,.,,C. 제조업,기타 제품 제조업
동남아대양주,인도네시아,자카르타,나노에스엔지,NANO SNG,"KOMPLEK PERGUDANGAN CENTRAL CAKUNG BLOK H2 NO.19 JL. CAKUNG CILINCING KM 3 ROROTAN, CILINCING, JAKARTA UTARA 14140, INDONESIA",-6.15222809360065,106.945204668475,14140,판매법인,.,Nano SNG,G. 도매 및 소매업,
동남아대양주,인도네시아,자카르타,나라슈밋,NARASUMMIT,"DELTA SILICON INDUSTRIAL PARK BLOK L NO.10-2, JALAN MERANTI 3, SUKARESMI, CIKARANG SELATAN, BEKASI, JAWA BARAT 17550, INDONESIA",-6.32549245187616,107.126087946881,17550,생산법인,단독투자,나라엠앤디,C. 제조업,기타 기계 및 장비 제조업
동남아대양주,인도네시아,자카르타,나래여행사,NARAE TOUR INDONESIA,"PATRA JASA OFFICE TOWER, 15TH FL. UNIT 1508A, JL. JEND. GATOT SUBROTO KAV. 32-34, JAKARTA SELATAN 12950, INDONESIA",-6.22963967712553,106.832621535663,12950,서비스법인,.,,"N. 사업시설 관리, 사업 지원 및 임대 서비스업",
동남아대양주,인도네시아,자카르타,나무플라워,NAMU FLOWER,"THE DHARMAWANGSA SQUARE LT. 3 UNIT NO. 57 JL. DHARMAWANGSA VI, RT.5,RW.1 PULO, KEBAYORAN BARU JAKARTA SELATAN, INDONESIA",-6.25257195566463,106.801802050511,12160,판매법인,.,,G. 도매 및 소매업,
동남아대양주,인도네시아,자카르타,나무플라워 아카데미,NAMU FLOWER ACADEMY,"THE DHARMAWANGSA SQUARE LT. 3 UNIT NO. 57 JL. DHARMAWANGSA VI, RT.5,RW.1 PULO, KEBAYORAN BARU JAKARTA SELATAN 12160, INDONESIA",-6.25319684499064,106.801295795383,12160,서비스법인,.,,P. 교육서비스업,
동남아대양주,인도네시아,자카르타,나이스인도네시아,NICE INDONESIA,"JL. INDUSTRI BATUJAJAR PERMAI 2 KAV.17-19 RT.06 RW.04, LAKSANAMEKAR, PADALARANG, BANDUNG BARAT, JAWA BARAT 40715, INDONESIA",-6.35301401811943,106.811444570914,40715,생산법인,.,,C. 제조업,화학 물질 및 화학제품 제조업 (의약품 제외)
동남아대양주,인도네시아,자카르타,낙성 글로발,NAKSUNG GLOBAL,"RUKO PALAZZO BLOK V3 NO. 21, VILLA MUTIARA CIKARANG SELATAN, BEKASI, INDONESIA",-6.34040894540112,107.113147266199,17530,생산법인,.,,F. 건설업,
동남아대양주,인도네시아,자카르타,남광택,NAMKWANG TECH INDONESIA,"JL. RAYA JAKARTA - SERANG KM. 68 (JL. RAYA MODERN INDUSTRI NO. 13) NAMBO ILIR, SERANG, BANTEN 42186, INDONESIA",-6.18571747598404,106.341396021506,42186,생산법인,.,,C. 제조업,"가죽, 가방 및 신발 제조업"
동남아대양주,인도네시아,자카르타,남남패션인더스트리,NAMNAM FASHION INDUSTRIES,"JL. MAHAR MARTANEGARA NO.106-A, KEC.CIMAHI TENGAH, CIMAHI, INDONESIA",-6.897360826077,107.550767755225,40522,생산법인,.,남영산업,C. 제조업,섬유제품 제조업 (의복 제외)
동남아대양주,인도네시아,자카르타,낫소 인도네시아법인,PT. NASSAU SPORT INDONESIA,"JI. LANBAU, DESA SANJA, CITEUREUP 16810, BOGOR, JAWA BARRAT.",-6.49183348168529,106.864351810389,16810,"생산법인, 판매법인",합작투자(60%),주식회사 낫소,C. 제조업,기타 제품 제조업
동남아대양주,인도네시아,자카르타,네시아판파시픽,NESIA PAN-PACIFIC CLOTHING,"DUSUN KETONGGO. RT.01,RW.02, DESA KERJOLOR, KEC. NGADIROJO WONOGIRI 57681 JAWA TENGAH, INDONESIA",-7.81300246050555,111.026298356168,57681,생산법인,.,Pan-Pacific,C. 제조업,섬유제품 제조업 (의복 제외)
동남아대양주,인도네시아,자카르타,네시아판파시픽,NESIA PAN-PACIFIC KNIT,"DUSUN NGADIRNO, RT.17,RW.04, KLERO, TENGARAN, SEMARANG, JAWA TENGAH 50775, INDONESIA",-7.41276019849277,110.516047468111,50775,생산법인,.,Pan-Pacific,C. 제조업,섬유제품 제조업 (의복 제외)
동남아대양주,인도네시아,자카르타,노또스 우인 인다스트리스,NOTOS WOOIN INDUSTRIES,"JL. SODONG , ALTERNATIF JONGGOL RT 01 RW 03 DESA MEKARGALIH KEC. CIKALON KULON KAB. CIANJUR JAWA BARAT 43291, INDONESIA",-6.71216755218795,107.199587304979,43291,생산법인,.,,C. 제조업,섬유제품 제조업 (의복 제외)
동남아대양주,인도네시아,자카르타,노블인도네시아,NOBLE INDONESIA,"JL. KP. MOMONOT, TLAJUNG UDIK, KEC. GN. PUTRI, BOGOR, JAWA BARAT 16962, INDONESIA",-6.45112155999672,106.910017422485,16962,생산법인,.,,C. 제조업,섬유제품 제조업 (의복 제외)
동남아대양주,인도네시아,자카르타,농수산식품유통공사(AT),KOREA AGRO-FISHERIES & FOOD TRADE CORPORATION,"THE ENERGY BUILDING, 20TH FL. ZONE F, SCBD LOT 11A JL. JEND. SUDIRMAN KAV. 52-53, JAKARTA 12190, INDONESIA",-6.4583448157685,107.884044977533,12190,기타,.,한국농수산식품유통공사,U. 국제 및 외국기관,
동남아대양주,인도네시아,자카르타,농협사료,NONGHYUP FEED INDONESIA,"BELLEZA SHOPPING ARCADE 201, JL.LETJEN SOEPENO 34, PERMATA HIJAU, JAKARTA, INDONESIA",-6.22185042672781,106.783411188524,12210,생산법인,.,,C. 제조업,식료품 제조업
동남아대양주,인도네시아,자카르타,누가베스트소떼리아,NUGA BEST SOTERIA,"JL. KAPTEN P. TENDEAN NO. 85, MAMPANG PRAPATAN, JAKARTA SELATAN 12710, INDONESIA",-6.23999082015824,106.822526311708,12710,판매법인,.,누가의료기,G. 도매 및 소매업,
동남아대양주,인도네시아,자카르타,뉴자야인터내셔날,NEW JAYA INTERNATIONAL,"JL.RAYA NAROGONG KM.9-10 NO.7, BANTAR GEBANG, BEKASI 17151, INDONESIA",-6.3092730782057,106.984225414316,17151,생산법인,.,,C. 제조업,섬유제품 제조업 (의복 제외)
동남아대양주,인도네시아,자카르타,다나코린도 자야,PT. DANAKORINDO JAYA,"JL. KOPO MAJA, CIKANDE, KEC. CIKANDE, SERANG, BANTEN, INDONESIA",-6.24076099527479,106.377113700645,42178,생산법인,단독투자,다나코레아,C. 제조업,금속 가공제품 제조업 (기계 및 가구 제외)
동남아대양주,인도네시아,자카르타,다르마아바디만디리,DARMA ABADI MANDIRI,"JL. RAYA SUKABUMI DS. TELUK PINANG RT. 01,01 CIAWI, KAB. BOGOR, INDONESIA",-6.66173688062321,106.844745963929,16720,생산법인,.,,C. 제조업,섬유제품 제조업 (의복 제외)
동남아대양주,인도네시아,자카르타,다림피데타코르네시아,DALIM FIDETA KORNESIA,"KAWASAN BERIKAT NUSANTARA CAKUNG CILINCING JL. BELITUNG BLOK D-42 JAKARTA UTARA 14140, INDONESIA",-6.14425828839946,106.935889954586,14140,생산법인,.,,C. 제조업,기타 제품 제조업
동남아대양주,인도네시아,자카르타,다산판파시픽인도네시아,DASAN PAN PACIFIC INDONESIA,"JL.RAYA PARAKANSALAK, BOJONGLONGOK PARUNGKUDA KM.5 KAB.SUKABUMI 43355 - JAWA BARAT, INDONESIA",-6.7971407803558,106.706201558496,43355,생산법인,.,,C. 제조업,섬유제품 제조업 (의복 제외)
동남아대양주,인도네시아,자카르타,다위전자,DAWEE ELECTRONIC INDONESIA,"JL. JABABEKA XVI BLOK U3C KAWASAN INDUSTRI JABABEKA CIKARANG BEKASI, INDONESIA",-6.28314474887731,107.14828666769,17530,생산법인,.,,C. 제조업,"전자 부품, 컴퓨터, 영상, 음향 및 기통신장비 제조업"
동남아대양주,인도네시아,자카르타,다진사우다라,DAJIN SAUDARA,"JL PANGERAN ANTASARI BLOK SIWATU, RT 009,003, DESA PURBAWINANGUN KECAMATAN PLUMBON KABUPATAN CIREBON, INDONESIA",-6.7279143153779,108.465198004622,45155,생산법인,.,,C. 제조업,섬유제품 제조업 (의복 제외)
동남아대양주,인도네시아,자카르타,단 테크니컬 인도네시아,DAAN TECHNICAL INDONESIA,"TAMAN TEKNO SEKTOR XI BLOK L2. NO 19 SETU, KOTA TANGERANG SELATAN 15314, INDONESIA",-6.27342198119827,106.598806550923,15314,생산법인,.,,C. 제조업,고무 및 플라스틱제품 제조업
동남아대양주,인도네시아,자카르타,대경 인도네시아,DAE KYUNG INDONESIA,"JL. RAYA CIPENDAWA RT 3 RW 2 BOJONG MENTENG, RAWALUMBU, BEKASI 17117, INDONESIA",-6.29868574219964,106.987159705725,17117,생산법인,.,,C. 제조업,인쇄 및 기록매체 복제업
동남아대양주,인도네시아,자카르타,대경인다중공업,DAEKYUNG INDAH HEAVY INDUSTRY,"JL. AUSTRALIA LL K1 KAWASAN INDUSTRIAL KIEC CILEGON 42443, BANTEN, INDONESIA",-6.00329967987212,106.032292573319,42443,생산법인,.,대경기도계기술,C. 제조업,기타 기계 및 장비 제조업
동남아대양주,인도네시아,자카르타,대경자야아바디,DAEKYUNG JAYA ABADI,"RUKO DUTA SENTRA CIBINONG 3B JL.RAYA JAKARTA BOGOR KM 42 JAWA BARAT, INDONESIA",-6.47097002927549,106.850202398597,16916,판매법인,.,,G. 도매 및 소매업,
동남아대양주,인도네시아,자카르타,대근우따마,DAE GUN UTAMA,"JL. MUSHOLA AL-IKHSAN NO.28-30 JATIBENING PONDOK GEDE-BEKASI 17412, INDONESIA",-6.25956911329754,106.94818251528,17412,서비스법인,.,,"N. 사업시설 관리, 사업 지원 및 임대 서비스업",
동남아대양주,인도네시아,자카르타,대농글로벌,DAENONG GLOBAL,"JL. RAYA SADANG – SUBANG KM. 138, DSN. CIKADU, DESA MANYETI, KEC. DAWUAN, KAB. SUBANG - JAWA BARAT, INDONESIA",-6.53586380082763,107.69348284975,41271,생산법인,.,대농그룹,C. 제조업,섬유제품 제조업 (의복 제외)
동남아대양주,인도네시아,자카르타,대대가구,DAE DAE MEBEL INDONESIA,"JL. TIRTOSAMODRO, DESA BANDENGAN RT .16,RW. 05, JEPARA 59432 JAWA TENGAH, INDONESIA",-6.56188048250037,110.661769549076,59432,생산법인,.,,C. 제조업,가구 제조업
동남아대양주,인도네시아,자카르타,대동산업,PT. DAEDONG BLIND INDONESIA,"KAWASAN INDUSTRI MILENIUM JL.MILENIUM 9 BLOK E2 NO.14 DESA PEUSAR KEC. PANONGAN KAB. TANGERANG, INDONESIA",-6.25340485686712,106.497985251992,15710,생산법인,단독투자,이지스블라인드,C. 제조업,기타 제품 제조업
동남아대양주,인도네시아,자카르타,대동인터내셔날,DAEDONG INTERNATIONAL,"JL. VETERAN II DESA TELUK PINANG CIAWI-BOGOR, INDONESIA",-6.67855324597632,106.854024294532,16720,생산법인,.,,C. 제조업,섬유제품 제조업 (의복 제외)
동남아대양주,인도네시아,자카르타,대림산업,DAELIM INDUSTRIAL,"KOREA CENTER BUILDING 4TH FL, JL. JEND GATOT SUBROTO KAV.58 JAKARTA SELATAN 12950, INDONESIA",-6.23910454557464,106.832594322088,12950,해외지사,단독투자,대림산업,F. 건설업,
동남아대양주,인도네시아,자카르타,대명 케미칼,DAI MYUNG CHEMICAL,"JL. RAYA SERANG KM 11 KP. BULAKAN DESA BITUNG JAYA RT 09,04 NO 45, CIKUPA, TANGERANG, INDONESIA",-6.22083827060359,106.552578777764,15710,생산법인,.,,C. 제조업,화학 물질 및 화학제품 제조업 (의약품 제외)
동남아대양주,인도네시아,자카르타,대상,DAESANG,"JL. RAYA NAROGONG KM 14, PANGKALAN 8, 5 LIMUS NUNGGAL, CILEUNGSI, BOGOR 16820, INDONESIA",-6.36371829350187,106.975041257678,16820,생산법인,.,,C. 제조업,섬유제품 제조업 (의복 제외)
동남아대양주,인도네시아,자카르타,대성 하이택,DAESUNG HI-TECH,"JL RAYA LEGOK, DESA CIJANTRA, PAGEDANGAN, TANGERANG 15335, INDONESIA",-6.31453670931614,106.583413267522,15335,생산법인,.,,C. 제조업,"가죽, 가방 및 신발 제조업"
동남아대양주,인도네시아,자카르타,대영두니아수부르,DAE YOUNG DUNIA SUBUR,"JL. SILIWANGI KM 9 NO. 75 BANTAR GEBANG BEKASI 17310, INDONESIA",-6.30685219963204,106.985083835582,17310,생산법인,.,,C. 제조업,"가죽, 가방 및 신발 제조업"
동남아대양주,인도네시아,자카르타,대우건설,DAEWOO ENGINEERING & CONSTRUCTION,"GEDUNG SONA TOPAS TOWER 16TH JL. JEND SUDIRMAN KAV 26 JAKARTA SELATAN 12920, INDONESIA",-6.21245871796223,106.820583185596,12920,해외지사,단독투자,대우건설,F. 건설업,
동남아대양주,인도네시아,자카르타,대원 에코 인도네시아,DAEWON ECO INDONESIA,"JL. PINANG BLOK F23 NO. 11E -11F DELTA SILICON 3 LIPPO CIKARANG, CICAU, CIKARANG PUSAT, KABUPATEN BEKASI JAWA BARAT 17530 INDONESIA",-6.35839406895957,107.145599926081,17530,생산법인,.,,C. 제조업,"가죽, 가방 및 신발 제조업"
동남아대양주,인도네시아,자카르타,대원 크레인 글로발,DAEWON CRANE GLOBAL,"KOREA CENTER BUILDING SUITE 606, JL.JEND GATOT SUBROTO NO.58 JAKARTA 12950, INDONESIA",-6.238982551606,106.833184275638,12950,서비스법인,.,Daewon Crane Global,F. 건설업,
동남아대양주,인도네시아,자카르타,대유포렉인도네시아,DAEYU INDONESIA,"JL. SULTAN HASANUDDIN KM.39 TAMBUN BEKASI 17510, INDONESIA",-6.25532393910101,107.062507961524,17510,생산법인,.,,C. 제조업,섬유제품 제조업 (의복 제외)
동남아대양주,인도네시아,자카르타,대자야진에시아,DAEJAYA JINESIA,"KP. PURWASARI RT.01,01 PURWASARI KEC. CICURUG KAP. SUKABUMI, INDONESIA",-6.76575269043053,106.789225157395,43359,생산법인,.,,C. 제조업,섬유제품 제조업 (의복 제외)
동남아대양주,인도네시아,자카르타,대한글로벌,DAEHAN GLOBAL,"JL. MAYOR OKING JAYA ATMAJA NO.112B CIBINONG-BOGOR, INDONESIA",-6.47228497935051,106.862662468614,16810,생산법인,.,대한글로벌소싱,C. 제조업,섬유제품 제조업 (의복 제외)
동남아대양주,인도네시아,자카르타,대한글로벌,DAEHAN GLOBAL(HQ),"KP. JEMBATAN 2 RT 01 RW 09, KEL. KARANGASEM BARAT, KEC. CITEUREUP, KAB. BOGOR, JAWA BARAT, INDONESIA",-6.54382583147022,106.823231273894,16918,생산법인,.,대한글로벌소싱,C. 제조업,섬유제품 제조업 (의복 제외)
동남아대양주,인도네시아,자카르타,대한글로벌,DAEHAN GLOBAL BREBES,"JL.RAYA CIMOHONG DESA CIMOHONG, KELURAHAN CIMOHONG, KECAMATAN BULAKAMBA, KABUPATEN BREBES, PROVINSI JAWA, INDONESIA",-6.87145413760599,108.900881309306,52253,생산법인,.,대한글로벌소싱,C. 제조업,섬유제품 제조업 (의복 제외)
동남아대양주,인도네시아,자카르타,대한글로벌,DAEHAN GLOBAL II & III,"JL.RAYA KARANG TENGAH KM.14 RT 002 RW 004 DESA KARANG TENGAH, KECAMATAN CIBADAK, KABUPATEN SUKABUMI, JAWA BARAT, INDONESIA",-6.89407654862236,106.813512467633,43351,생산법인,.,대한글로벌소싱,C. 제조업,섬유제품 제조업 (의복 제외)
동남아대양주,인도네시아,자카르타,대한항공㈜ 자카르타지점,KOREAN AIR JAKARTA BRANCH,"9TH FL. MAYAPADA TOWER JL. JEND. SUDIRMAN KAV.28 JAKARTA SELATAN 12910, INDONESIA",-6.21370057902833,106.821374871237,12910,서비스법인,.,대한항공,H. 운수 및 창고업,
동남아대양주,인도네시아,자카르타,대현보빈 인도네시아,DAEHYUN BOBBIN INDONESIA,"KAWASAN INDUSTRI JABABEKA I JL. JABABEKA I BLOK C NO. 19P, BEKASI, INDONESIA",-6.28852555544467,107.149491339494,17530,생산법인,단독투자,,C. 제조업,고무 및 플라스틱제품 제조업
동남아대양주,인도네시아,자카르타,대홍기획인도네시아,DAEHONG COMMUNICATIONS INDONESIA,"LOTTE BUILDING 1ST FLOOR JL. LINGKAR LUAR SELATAN KAV. 5&6 CIRACAS, JAKARTA 13750, INDONESIA",-6.30971767097114,106.866985130288,13750,서비스법인,.,대홍기획,"M. 전문, 과학 및 기술 서비스업",
동남아대양주,인도네시아,자카르타,대화 피혁,PT. DAEHWA LEATHER LESTARI,"BEKASI INT'L INDUSTRIAL ESTATE BLOCK C 10 NO 6 LIPPO CIKARANG, JAWA BARAT, INDONESIA",-6.3369803566886,107.134215454192,17530,생산법인,단독투자,,C. 제조업,"가죽, 가방 및 신발 제조업"
동남아대양주,인도네시아,자카르타,대화인도네시아,DAEHWA INDONESIA,"JL. INDUSTRI UTAMA 4 BLOK SS 6B, KAWASAN INDUSTRI JABABEKA CIKARANG, BEKASI 17530, INDONESIA",-6.2983889700947,107.159119724588,17530,생산법인,.,,C. 제조업,고무 및 플라스틱제품 제조업
동남아대양주,인도네시아,자카르타,대화찌뜨라쓰자띠,DEWA CITRA SEJATI,"JL OTONOM PASAR KEMIS KM 15 DESA TALAGASARI RT005,02 CIKUPA TANGERANG, INDONESIA",-6.21716844001815,106.518314248735,15790,생산법인,단독투자,,C. 제조업,"가죽, 가방 및 신발 제조업"
동남아대양주,인도네시아,자카르타,덕일 텍스틸 코리아 인도네시아,DUCKIL TEXTILE KOREA INDONESIA,"KAWASAN INDUSTRI CIKUPA MAS JL.BHUMIMAS BLOK VII NO.5 TANGERANG BANTEN, INDONESIA",-6.20475834775333,106.516840192485,15710,생산법인,.,덕일섬유,C. 제조업,섬유제품 제조업 (의복 제외)
동남아대양주,인도네시아,자카르타,데우텍스틸인도네시아,DEWU TEXTILE INDONESIA,"JL. RAYA KOSAMBI CURUG, DUSUN KEBON KACANG, RT. 001 RW 005, DESA CIMAHI, KEC. KLARI KARAWANG, JAWA BARAT, INDONESIA",-6.41373705824239,107.377888618838,41371,생산법인,.,,C. 제조업,섬유제품 제조업 (의복 제외)
동남아대양주,인도네시아,자카르타,델타매이트인도네시아,DELTA MATE INDONESIA,"JL.RAYA PADAT KARYA BOJONG RT.23,07 DS KEMBANG KUNING KEC KELAPANUNGGAL BOGOR JAWA BARAT 16820, INDONESIA",-6.39444065616719,106.949179261686,16820,생산법인,.,,C. 제조업,"가죽, 가방 및 신발 제조업"
동남아대양주,인도네시아,자카르타,도서출판 광개토,PT. KWANGGAETO SISTEM PERCETAKAN,"JL. IMAM BONJOL NO75, KEL PANUNGGAN BARAT, KEC CIBODAS, KOTA TANGERANG, BANTEN, INDONESIA",-6.21670160806337,106.618855437492,15138,생산법인,.,,C. 제조업,"펄프, 종이 및 종이제품 제조업"
동남아대양주,인도네시아,자카르타,도화엔지니어링(주),DOHWA ENGINEERING,"PLAZA ASIA 9TH FLOOR, JI. JENDRAL SUDIRMAN, KAV.59, JAKARTA 12190, INDONESIA",-6.22583977394546,106.805406237494,12190,서비스법인,.,도화엔지니어링,"M. 전문, 과학 및 기술 서비스업",
동남아대양주,인도네시아,자카르타,돌석 인도네시아,DULSEOK INDONESIA,"KOMPLEK PERGUDANGAN MULTIGUNA BIZPOINT BLOK DUBAI NO.2 JL. RAYA PEMDA TIGARAKSA CIKUPA TANGERANG 15710, INDONESIA",-6.23137823023545,106.506062648281,15710,판매법인,.,,F. 건설업,
동남아대양주,인도네시아,자카르타,동광프린팅,DONG KWANG PRINTING,"JL.MADURA I BLOK D-11A KBN CAKUNG-CILINCING JAKARTA UTARA, INDONESIA",-6.14179832574761,106.928685699413,14140,생산법인,.,,C. 제조업,인쇄 및 기록매체 복제업
동남아대양주,인도네시아,자카르타,동구 트르빗 인도네시아,DONGGU TERBIT INDONESIA,"KAWASAN INDUSTRI KENCANA ALAM (BONEN) JL. RAYA SERANG KM. 18.8 KAV. 7A, DS. SUKANEGARA, CIKUPA, TANGERANG 15710, INDONESIA",-6.20567530499125,106.497176868355,15710,생산법인,.,,C. 제조업,섬유제품 제조업 (의복 제외)
동남아대양주,인도네시아,자카르타,동방인도,DONG BANG INDO,"JL. PATEMON RT 02 , RW 01, TENGANAN, SEMARANG 50775, INDONESIA",-7.1692352,110.4723854,50775,생산법인,.,,C. 제조업,"의복, 의복 액세서리 및 모피제품 제조업"
동남아대양주,인도네시아,자카르타,동부자야,DONGBU JAYA,"KP. PEDURENAN 4 RT. 01 RW. 03 DS. PEDURENAN KEC. GN. SINDUR - BOGOR 16340, INDONESIA",-6.381891858,106.7065781,16340,생산법인,.,,C. 제조업,섬유제품 제조업 (의복 제외)
동남아대양주,인도네시아,자카르타,동산 홀딩스,DONGSAN HOLDINGS,"JL. KP. BARU, RT. 005 RW 004, PASIR BARAT KEC. JAMBE, TANGERANG, BANTEN 15720, INDONESIA",-6.244790713,106.5135349,15720,생산법인,.,,C. 제조업,섬유제품 제조업 (의복 제외)
동남아대양주,인도네시아,자카르타,동산인더스트리,DONG SON INDUSTRY,"JL. RAYA SERANG KM 14, 5 CIKUPA TANGERANG, INDONESIA",-6.224574766,106.5271688,15710,생산법인,.,,C. 제조업,섬유제품 제조업 (의복 제외)
동남아대양주,인도네시아,자카르타,동서 퍼니쳐,PT. DONG SEO FURNITURE,"JL. PALEM MANIS 4 NO 61 KP.DUMPIT KEL GANDASARI KEC JATIUWUNG TANGERANG BANTEN, INDONESIA",-6.21557935,106.5925571,15137,생산법인,M&A,,C. 제조업,목재 및 나무제품 제조업 (가구 제외)
동남아대양주,인도네시아,자카르타,동서인도네시아,DONGSUH INDONESIA,"KAWASAN INDUSTRI MODERN CIKANDE JL. UTAMA MODERN CIKANDE, BLOK AA NO. 4, SERANG 42186, INDONESIA",-6.19204208,106.3209877,42186,생산법인,.,동서화학공업,C. 제조업,화학 물질 및 화학제품 제조업 (의약품 제외)
동남아대양주,인도네시아,자카르타,동성 자카르타,DONGSUNG JAKARTA,"JL. RAYA PAJAJARAN NO. 121 KEL. GANDASARI KEC. JATIUWUNG 15137 TANGERANG, INDONESIA",-6.200428237,106.5817978,15137,생산법인,.,,C. 제조업,화학 물질 및 화학제품 제조업 (의약품 제외)
동남아대양주,인도네시아,자카르타,동아 쳄인도,DONG-AH CHEMINDO,"KAWASAN MILLENNIUM INDUSTRIAL ESTATE JL. MILLENNIUM 4 BLOCK A 25 NO. 3 - 3A DESA PEUSAR, KECAMATAN PANONGAN TANGERANG 15710, INDONESIA",-6.249957611,106.5024624,15710,생산법인,.,,C. 제조업,"가죽, 가방 및 신발 제조업"
동남아대양주,인도네시아,자카르타,동안인도네시아,DONGEN CHEMICAL INDONESIA,"DELTA SILICON L INDUSTRIAL PARK, LIPPO CIKARANG JL, ANGSANA RAYA BLOK L 7 NO.1, BEKASI 17550, INDONESIA",-6.312804735,107.1194285,17550,생산법인,.,,C. 제조업,고무 및 플라스틱제품 제조업
동남아대양주,인도네시아,자카르타,동안크레아시인도네시아,DONGAN KREASI INDONESIA,"JALAN PURWADADI, DESA WANAKARTA, KAB. SUBANG 41261, INDONESIA",-6.449726506,107.6942129,41261,생산법인,.,,C. 제조업,기타 제품 제조업
동남아대양주,인도네시아,자카르타,동안크레아시인도네시아,DONGAN KREASI INDONESIA,"KAWASAN INDUSTRI HYUNDAI KAV. C3 NO.12 CIKARANG SELATAN, BEKASI 17550, INDONESIA",-6.33794654,107.1204021,17550,생산법인,.,,C. 제조업,기타 제품 제조업
동남아대양주,인도네시아,자카르타,동양니수신도,DONG YANG NISUSINDO,"DUSUN WANTILAN RT.008, RW. 003, DESA WANTILAN, KEC. CIPEUNDEUY, SUBANG, INDONESIA",-6.495261742,107.5985804,41272,생산법인,.,동양나이서스,C. 제조업,인쇄 및 기록매체 복제업
동남아대양주,인도네시아,자카르타,동양일러스트인도네시아,DONGYANG ILLUST INDONESIA,"KP. KRAJAN RT. 06 RW. 03, DESA CIKOPO, KEC. BUNGURSARI, KAB. PURWAKARTA 41181, INDONESIA",-6.422804837,107.4842672,41181,생산법인,.,"DYI CO., LTD.",C. 제조업,섬유제품 제조업 (의복 제외)
동남아대양주,인도네시아,자카르타,동요앰브로이드리,DONGYO EMBROIDERY,"JL. LOMBOK BLOK A-28 KBN CAKUNG-CILINCING JAKARTA UTARA, INDONESIA",-6.139546168,106.9353768,14140,생산법인,.,,C. 제조업,섬유제품 제조업 (의복 제외)
동남아대양주,인도네시아,자카르타,동우텍,PT. DONG WOO TECH,"JL. RAYA TIGARAKSA KP.CIAPUS INDAH, INDONESIA",-6.237178074,106.4945773,15710,생산법인,단독투자,,C. 제조업,고무 및 플라스틱제품 제조업
동남아대양주,인도네시아,자카르타,동원가르멘트,DONG ONE GARMENT,"JL. TERNATE BLOK D-15A (KBN) KAWASAN BERIKAT NUSANTARA CAKUNG CILINCING JAKARTA UTARA, INDONESIA",-6.106755987,106.9452426,14140,생산법인,.,,C. 제조업,섬유제품 제조업 (의복 제외)
동남아대양주,인도네시아,자카르타,동일메탈인도네시아,DONG IL METAL INDONESIA,"BEKASI INTERNASIONAL INDUSTRIAL ESTATE BLOK C-8 N0.14-16 CIKARANG SELATAN BEKASI 17550 JAWA BARAT, INDONESIA",-6.335276334,107.1287139,17550,생산법인,.,동일메탈,C. 제조업,자동차 및 트레일러 제조업
동남아대양주,인도네시아,자카르타,동주라야인도네시아,DONG JU RAYA INDONESIA,"KAWASAN INDUSTRI MM 2100 BLOCK MN 3-2, DS JATIWANGI, CIBITUNG, BEKASI, INDONESIA",-6.316625812,107.0982764,17520,생산법인,.,동주,C. 제조업,"펄프, 종이 및 종이제품 제조업"
동남아대양주,인도네시아,자카르타,동중인도네시아,DONG JUNG INDONESIA,"JL. RAYA CUKANGGALIH NO.7, CURUG KULON, CURUG, TANGERANG 15810, INDONESIA",-6.251287953,106.5502604,15810,생산법인,.,,C. 제조업,고무 및 플라스틱제품 제조업
동남아대양주,인도네시아,자카르타,동중인도네시아,DONG JUNG INDONESIA,"GEDUNG PATRA JASA LT. 18 SUITE 1821 JL. JEND. GATOT SUBROTO KAV. 32-34 JAKARTA SELATAN, INDONESIA",-6.23341247,106.8232269,12950,생산법인,.,,C. 제조업,고무 및 플라스틱제품 제조업
동남아대양주,인도네시아,자카르타,동진 인도네시아,DONGJIN INDONESIA,"INTERCON PLAZA BLOK C NO.16 JL. TAMAN KEBON JERUK, JAKARTA 11630, INDONESIA",-6.204669806,106.7431582,11630,생산법인,.,,C. 제조업,화학 물질 및 화학제품 제조업 (의약품 제외)
동남아대양주,인도네시아,자카르타,동진 텍스틸 인도네시아,DONG JIN TEXTILE INDONESIA,"ARTHA INDUSTRIAL HILL BLOCK A1 NO 6, JL TRANS HEKSA, DESA WANAJAYA, KEC TELUK JAMBI BARAT KARAWANG, JAWA BARAT, INDONESIA",-1.375828476,103.5930929,41361,생산법인,.,,C. 제조업,섬유제품 제조업 (의복 제외)
동남아대양주,인도네시아,자카르타,두니아 트란스뽀르따시 로기스틱,DUNIA TRANSPORTASI LOGISTIK,"GRAHA CEMPAKA MAS BLOK A NO. 11 JL. LETJEN SUPRAPTO KAV. 3, KEMAYORAN, JAKARTA PUSAT 10640, INDONESIA",-6.16491713,106.8755445,10640,서비스법인,.,,H. 운수 및 창고업,
동남아대양주,인도네시아,자카르타,두산글로발,DOOSAN GLOBAL,"JL. RAYA CIPUTAT-PARUNG GG H NAMIN RT 02 RW 011 BOJONGSARI LAMA-ALIANDONG SAWANGAN-DEPOK 16516, INDONESIA",-6.394128523,106.7480541,16516,생산법인,.,,C. 제조업,섬유제품 제조업 (의복 제외)
동남아대양주,인도네시아,자카르타,두산시나르,DOOSAN SINAR SUKABUMI,"JL. PLN ANGKRONG DS. SUNDA WENANG PARUNG KUDA SUKABUMI, INDONESIA",-6.86067375,106.7669907,43357,생산법인,.,디앤제이트레이딩,C. 제조업,섬유제품 제조업 (의복 제외)
동남아대양주,인도네시아,자카르타,두산자야수까부미,DOOSAN JAYA SUKABUMI,"JL. RAYA SUKABUMI KP. CIPANGGULAN RT.06,02 KOMPA, PARUNG KUDA, KAB. SUKABUMI 43157, INDONESIA",-6.818391799,106.7573119,43157,생산법인,.,,C. 제조업,섬유제품 제조업 (의복 제외)
동남아대양주,인도네시아,자카르타,두산중공업,DOOSAN HEAVY INDUSTRY & CONSTRUCTION,"PLAZA BAPINDO MANDIRI TOWER 20F JL. JEND SUDIRMAN NO54-55 JAKARTA, INDONESIA",-6.224541922,106.8076961,12190,해외지사,단독투자,두산중공업,F. 건설업,
동남아대양주,인도네시아,자카르타,두산찝따부사나자야,DOOSAN CIPTA BUSANA JAYA,"KAWASAN BERIKAT NUSANTARA(KBN), JL. MADURA V BLOK D NO.18A, JL. RAYA CAKUNG, CILINCING, JAKARTA UTARA 14140, INDONESIA",-6.140240883,106.9315496,14140,생산법인,.,,C. 제조업,섬유제품 제조업 (의복 제외)
동남아대양주,인도네시아,자카르타,두왕인도네시아,PT. DOOWANG INDONESIA,"GRAHA SURVEYOR 19TH FL SUITE 1901 JL. GATOT SUBROTO KAV.56 JAKARTA 12950, INDONESIA",-6.238999478,106.832453,12950,기타,단독투자,,"M. 전문, 과학 및 기술 서비스업",
동남아대양주,인도네시아,자카르타,두원정밀,DOOWON PRECISION INDONESIA,"JL.JABABEKA 4 SFB BLOK C2 KAWASAN INDUSTRI JABABEKA, INDONESIA",-6.294872603,107.138041,17530,생산법인,.,두원정밀,C. 제조업,"전자 부품, 컴퓨터, 영상, 음향 및 기통신장비 제조업"
동남아대양주,인도네시아,자카르타,둑성,DUKSUNG,"RUKO DOT COM GREEN NO. 20 SCBD PARAMOUNT GADING SERPONG TANGERANG 15810, INDONESIA",-6.258758249,106.6295023,15810,생산법인,.,덕성,C. 제조업,"가죽, 가방 및 신발 제조업"
동남아대양주,인도네시아,자카르타,드림웨어,DREAM WEAR,"JL. RAYA GUNUNG SINDUR NO.27 BOGOR 16340, INDONESIA",-6.36349538,106.7178658,16340,생산법인,.,,C. 제조업,섬유제품 제조업 (의복 제외)
동남아대양주,인도네시아,자카르타,디나미까파나시아,DINAMIKA PANASIA,"JL. RAYA PROF DR. IR. SOETAMI KM. 8 KP. BINONG NO.57 CITERAS, RANGKAS BITUNG, KAB. LEBAK, BANTEN 42312, INDONESIA",-6.332980755,106.3456643,42312,생산법인,.,,C. 제조업,섬유제품 제조업 (의복 제외)
동남아대양주,인도네시아,자카르타,디나시라슴바다,DINASIRA SEMBADA,"JL. PADA SUKA II NO 44 (JL. RAYA MAUK KM.2) TANGERANG, INDONESIA",-6.168004014,106.6171316,15112,생산법인,.,,C. 제조업,섬유제품 제조업 (의복 제외)
동남아대양주,인도네시아,자카르타,디스포 자야 인도네시아,DISPO JAYA INDONESIA,"JL.INDUSTRI RAYA III BLOK AE NO.7, KAWASAN INDUSTRY JATAKE, TANGERANG 15135, INDONESIA",-6.197848495,106.5753583,15135,생산법인,.,,C. 제조업,고무 및 플라스틱제품 제조업
동남아대양주,인도네시아,자카르타,디안닝사리스자트라,DIAN NINGSARI SEJAHTERA (DNS),"JL RAYA JAKARTA BOGOR KM 41, 2 CIBINONG BOGOR, INDONESIA",-6.473972926,106.8254128,16916,생산법인,.,,C. 제조업,섬유제품 제조업 (의복 제외)
동남아대양주,인도네시아,자카르타,디자인에이스,DESIGN ACE," JL. RS. FATMAWATI NO.14 A-B, RT.001,RW.003, CILANDAK BARAT, CILANDAK, JAKARTA SELATAN, JAKARTA 12430, INDONESIA",-6.290002466,106.7955862,12430,서비스법인,.,,"M. 전문, 과학 및 기술 서비스업",
동남아대양주,인도네시아,자카르타,디케이인터내셔날,DK INTERNATIONAL,"KP.SUKAMANAH KAW LUWITEK A-2 DESA ANGGADITA KEC KLARI KAB KARAWANG, INDONESIA",-6.350231469,107.334714,41371,서비스법인,.,,"M. 전문, 과학 및 기술 서비스업",
동남아대양주,인도네시아,자카르타,디코리 인터내셔날,DECOREE INTERNATIONAL,"L'AVENUE LT.27, JL RAYA PASAR MINGGU KAV.16 PANCORAN, JAKARTA SELATAN, DKI JAKARTA, INDONESIA",-6.248339322,106.844115,12780,서비스법인,.,Decoree International,"M. 전문, 과학 및 기술 서비스업",
동남아대양주,인도네시아,자카르타,땅그랑 반튼 한인회,KOREAN ASSOCIATION TANGERANG BANTEN,"RUKO PINANGSIA BLOCK D NO.23 KEL.PANUNGGANGAN BARAT, KEC. CIBODAS, TANGERANG, INDONESIA",-6.222830891,106.6185882,15138,기타,.,,"S. 협회 및 단체, 수리 및 기타 개인 서비스업",
동남아대양주,인도네시아,자카르타,뚜나스 코인 자야,TUNAS KOIN JAYA,"DESA TALAGA RT,RW.002,02 KEC. CIKUPA TANGERANG, INDONESIA",-6.212090469,106.5079266,15710,생산법인,.,,C. 제조업,기타 기계 및 장비 제조업
동남아대양주,인도네시아,자카르타,띠가경승가르멘,TIGA KYUNGSEUNG GARMEN,"JL. RAYA CIPEUNDEUY KM 25 RT 020,006, CIPEUNDEUY, SUBANG, JAWA BARAT 41272, INDONESIA",-6.502528188,107.5773785,41272,생산법인,.,경승,C. 제조업,섬유제품 제조업 (의복 제외)
동남아대양주,인도네시아,자카르타,띠가구눙인터네셔널,TIGA GUNUNG INTERNATIONAL,"JL. MELATI NO 8 KP BARU RT 01,08, DS WANAHERANG, GUNUNG PUTRI, BOGOR, INDONESIA",-6.555725172,106.826125,16965,생산법인,.,,C. 제조업,섬유제품 제조업 (의복 제외)
동남아대양주,인도네시아,자카르타,라라스 삿와,LARAS SATWA,"JL. TAMAN PERMATA NO. 258 LIPPO KARAWACI, TANGERANG, INDONESIA",-6.223664408,106.5890338,15810,서비스법인,.,,"S. 협회 및 단체, 수리 및 기타 개인 서비스업",
동남아대양주,인도네시아,자카르타,라세르피아 텍,LASERPIA TECH,"JL. RAYA SERANG KM. 16 (JL.COLOMBUS NO.77) DESA TALAGA, CIKUPA TANGERANG 15710, INDONESIA",-6.182192713,106.4731479,15710,생산법인,.,,C. 제조업,기타 제품 제조업
동남아대양주,인도네시아,자카르타,라운드테이블,TRIBAL ROUNDTABLE,"PT. MEJA BUNDAR KOMUNIKA DARMAWANGSA SQUARE THE CITY WALK LANTAI 1, UNIT.165 JL. DARMAWANGSA VI &AMP;AMP; IX, PULO - KEBAYORAN BARU JAKARTA SELATAN",-6.253989329,106.8019534,12160,.,.,,.,
동남아대양주,인도네시아,자카르타,라이프 우따마 인더스트리 & 트래딩,LIFE UTAMA INDUSTRI & TRADING,"DESA NGIMBUN RT 07 RW 03 KEL. KARANGJATI, KEC. BERGAS, KAB. SEMARANG 50552, INDONESIA",-7.172360386,110.428731,50552,생산법인,.,,C. 제조업,섬유제품 제조업 (의복 제외)
동남아대양주,인도네시아,자카르타,라임 이커머스,LINE E-COMMERCE,"COHIVE 101, LT 10TH, MEGA KUNINGAN - JAKARTA SELATAN 12950, INDONESIA",-6.226225679,106.8257907,12950,판매법인,.,인스브룩,G. 도매 및 소매업,
동남아대양주,인도네시아,자카르타,락사나 아바디 프리마,LAKSANA ABADI PRIMA,"JL. RAYA SERANG KM 16, 8 CIHIDEUNG RT. 007,002. TALAGA, CIKUPA. KAB. TANGERANG BANTEN, INDONESIA",-6.223750773,106.5081819,15710,생산법인,.,,C. 제조업,기타 제품 제조업
동남아대양주,인도네시아,자카르타,락앤락인도네시아,LOCK & LOCK INDONESIA,"PALMA TOWER LT 17 UNIT EFG, JL RA KARTINI 2S SEKTOR 2, PONDOK TINANG, JAKARTA SELATAN., INDONESIA",-6.289986827,106.7827077,12310,판매법인,.,락앤락,G. 도매 및 소매업,
동남아대양주,인도네시아,자카르타,레드캡,REDCAP INDONESIA,"MENARA JAMSOSTEK, NORTH TOWER 23RD FLOOR JL.GATOT SUBROTO NO.38, JAKARTA SELATAN 12710, INDONESIA",-6.233692809,106.8213497,12710,서비스법인,.,레드캡투어,"N. 사업시설 관리, 사업 지원 및 임대 서비스업",
동남아대양주,인도네시아,자카르타,레시페,RECIFE FURNITURE,"JALAN RAYA JEPARA - KUDUS, BAPANGAN, KECAMATAN JEPARA, KABUPATEN JEPARA, JAWA TENGAH 59413, INDONESIA",-6.602524816,110.6783254,59413,생산법인,.,,C. 제조업,목재 및 나무제품 제조업 (가구 제외)
동남아대양주,인도네시아,자카르타,레오코린시아,LEO KORINSIA,"JL. CIPENDAWA BOJONG MENTENG, RAWA RUMBUH KOTAMADYA BEKASI 17117, INDONESIA",-6.299084434,106.9862815,17117,판매법인,.,,G. 도매 및 소매업,
동남아대양주,인도네시아,자카르타,레이 하르모니 카투리스티와,LEY HARMONY KHATULISTIWA,"JALAN RAYA STPI CURUG NO. 122 LEGOK SERDANG WETAN, TANGERANG 15820, INDONESIA",-6.281012683,106.5543466,15820,생산법인,.,,J. 정보통신업,
동남아대양주,인도네시아,자카르타,레인보우 캐미칼 인도네시아,RAINBOW CHEMICAL INDONESIA,"JL. JATIMULYA RT. 017, RW 002, WALAHAR, KLARI, KARAWANG, JAWA BARAT, INDONESIA",-6.379899746,107.3721405,41371,생산법인,.,,C. 제조업,화학 물질 및 화학제품 제조업 (의약품 제외)
동남아대양주,인도네시아,자카르타,로뎀투어,RODEM TOUR,"KOKAN KTC RUKO INKOPAL BLOK F 30 1ST FLOOR KELAPA GADING, JAKARTA UTARA 14240, INDONESIA",-6.15328852,106.9047245,14240,서비스법인,.,,"N. 사업시설 관리, 사업 지원 및 임대 서비스업",
동남아대양주,인도네시아,자카르타,로얄 코린다,ROYAL KORINDAH,"JL. PENJERNIHAN 1 NO.9 JAKARTA 10210, INDONESIA",-6.202914337,106.8062247,10210,생산법인,.,,C. 제조업,기타 제품 제조업
동남아대양주,인도네시아,자카르타,로얄푸스피따,ROYAL PUSPITA,"JL. KAMPUNG ANGKRONG NO.74, SUNDAWENANG, PARUNG KUDA, SUKABUMI, INDONESIA",-6.850125253,106.7581204,43157,생산법인,.,,C. 제조업,기타 제품 제조업
동남아대양주,인도네시아,자카르타,로지스올글로벌인도네시아,LOGISALL GLOBAL INDONESIA,"L’AVENUE OFFICE TOWER, LT. 11G, JL. RAYA PASAR MINGGU KAV. 16, PANCORAN, JAKARTA SELATAN 12780, INDONESIA",-6.248275331,106.8440614,12780,판매법인,.,로지스올,G. 도매 및 소매업,
동남아대양주,인도네시아,자카르타,로코디,LOKODI,"GRAND SLIPI TOWER, JL. LETJEN S. PARMAN NO.1, RT.1,RW.4, PALMERAH, KEC. PALMERAH, JAKARTA BARAT, DKI JAKARTA 11480, INDONESIA",-6.200650571,106.7983763,11480,서비스법인,단독투자,,"R. 예술, 스포츠 및 여가관련 서비스업",
동남아대양주,인도네시아,자카르타,로투스 월드 레스타리,LOTUS WORLD LESTARI,"JL. RAYA SERANG NO.KM28, SENTUL, KEC. BALARAJA, TANGERANG, BANTEN 15610, INDONESIA",-6.10590255,106.9438694,15610,생산법인,.,,C. 제조업,기타 제품 제조업
동남아대양주,인도네시아,자카르타,롯데건설인도네시아,LOTTE ENGINEERING & CONSTRUCTION,"SEQUIS CENTER, 8TH FLOOR JL. JEND. SUDIRMAN NO. 71, JAKARTA 12190, INDONESIA",-6.224607778,106.8065196,12190,서비스법인,.,롯데건설,F. 건설업,
동남아대양주,인도네시아,자카르타,롯데마트인도네시아,LOTTE MART INDONESIA,"JL.LINGKAR LUAR SELATAN KAV. 5&6, CIRACAS JAKARTA 13750, INDONESIA",-6.309123454,106.8670838,13750,판매법인,.,롯데마트,G. 도매 및 소매업,
동남아대양주,인도네시아,자카르타,롯데멤버스인도네시아,LOTTE MEMBERS INDONESIA,"WISMA KEIAI LT.14 JL. JEND. SUDIRMAN KAV. 3 JAKARTA 10220, INDONESIA",-6.207724403,106.8221859,10220,서비스법인,.,롯데카드,K. 금융 및 보험업,
동남아대양주,인도네시아,자카르타,롯데면세점,LOTTE DUTY FREE,"4TH FLOOR, CIPUTRA WORLD, JL. PROF. DR. SATRIO KAV. 3 - 5 KARET KUNINGAN, SOUTH JAKARTA 12940, INDONESIA",-6.224037609,106.8227012,12940,판매법인,합작투자,롯데면세점,G. 도매 및 소매업,
동남아대양주,인도네시아,자카르타,롯데상사,LOTTE INTERNATIONAL,"SEQUIS CENTER 8TH FL JL. JEND. SUDIRMAN KAV 71 JAKARTA SELATAN 12190, INDONESIA",-6.224533119,106.8065089,12190,판매법인,단독투자,롯데상사,G. 도매 및 소매업,
동남아대양주,인도네시아,자카르타,롯데쇼핑애비뉴(롯데백화점),LOTTE SHOPPING AVENUE INDONESIA,"JL. PROF.DR.SATRIO KAV 3-5, KARET KUNINGAN, JAKARTA 12940, INDONESIA",-6.223519144,106.8234416,12940,판매법인,.,롯데쇼핑,G. 도매 및 소매업,
동남아대양주,인도네시아,자카르타,롯데쇼핑인도네시아,LOTTE SHOPPING INDONESIA,"JL.LINGKAR LUAR SELATAN KAV. 5&6, CIRACAS JAKARTA 13750, INDONESIA",-6.309187437,106.867116,13750,판매법인,.,롯데마트,G. 도매 및 소매업,
동남아대양주,인도네시아,자카르타,롯데정보통신인도네시아,LOTTE DATA COMMUNICATION INDONESIA,"ANNEX BUILDING 3RD FLOOR, JL. LINGKAR LUAR SELATAN KAV. 5-6, SUSUKAN, CIRACAS, PASAR REBO JAKARTA TIMUR 13750, INDONESIA",-6.309045649,106.8662475,13750,서비스법인,.,롯데정보통신,J. 정보통신업,
동남아대양주,인도네시아,자카르타,롯데캐피탈,LOTTE CAPITAL INDONESIA,"WISMA KEIAI 7TH FLOOR JI. JEND. SUDIRMAN KAV. 3 JAKARTA 10220, INDONESIA",-6.205672274,106.8214639,10220,서비스법인,.,롯데캐피탈,K. 금융 및 보험업,
동남아대양주,인도네시아,자카르타,롯데케미칼인도네시아,LOTTE CHEMICAL TITAN NUSANTARA,"MANGKULUHUR CITY TOWER ONE 32ND FLOOR, JLN JENDERAL GATOT SUBROTO KAV 1-3, KARET SEMANGGI, SETIABUDI, JAKARTA SELATAN 12930, INDONESIA",-6.22095634,106.8140569,12930,생산법인,.,롯데케미칼,C. 제조업,화학 물질 및 화학제품 제조업 (의약품 제외)
동남아대양주,인도네시아,자카르타,롯데패키징,LOTTE PACKAGING,"JL. RAYA CURUG KM.11, DS KADU JAYA CURUG 15810, TANGERANG, BANTEN, INDONESIA",-6.247889736,106.5657155,15810,생산법인,.,롯데알미늄,C. 제조업,기타 제품 제조업
동남아대양주,인도네시아,자카르타,르스타리 부사나 앙군 마코타,LESTARI BUSANA ANGGUN MAHKOTA,"JL. TARUMA NEGARA NO. 12 RT. 001,01 PISANGAN, CIPUTAT TIMUR, TANGERANG 15419, INDONESIA",-6.316948272,106.7616667,15419,생산법인,.,,C. 제조업,섬유제품 제조업 (의복 제외)
동남아대양주,인도네시아,자카르타,리나자야가르멘트,RINA JAYA GARMENT,"JL.RONGGOLAWE RT.02,RW.018 DS.TELUKAN KEC.GROGOL KAB.SUKOHARJO, JAWA TENGAH 57552, INDONESIA",-7.620312781,110.8243979,57552,생산법인,.,,C. 제조업,섬유제품 제조업 (의복 제외)
동남아대양주,인도네시아,자카르타,리더즈월드,LEADERS WORLD,"KP. MOMONOT RT.01,11 DS. TLAJUNG UDIK, GUNUNG PUTRI KAB. BOGOR, 16962, INDONESIA",-6.45231368,106.9112588,16962,생산법인,.,,C. 제조업,섬유제품 제조업 (의복 제외)
동남아대양주,인도네시아,자카르타,리싸이클 센터 인도네시아,RECYCLE CENTER INDONESIA,"JL. RAYA SERANG TELESONIC KM 8, BITUNG TANGERANG 15810, INDONESIA",-6.203738559,106.5697322,15810,생산법인,.,,C. 제조업,"가죽, 가방 및 신발 제조업"
동남아대양주,인도네시아,자카르타,마니또월드,MANITO WORLD,"JL.SILIWANGI KAMPUNG BENDA RT01,RW01 DESA BENDA, CICURUG, SUKABUMI, JAWA BARAT, INDONESIA",-6.766487482,106.7972615,43359,생산법인,.,,C. 제조업,섬유제품 제조업 (의복 제외)
동남아대양주,인도네시아,자카르타,마따하리그밀랑인도네시아,MATAHARI GEMILANG INDONESIA,"JL. FATMAWATI NO. 168, BLOTONGAN, SIDOREJO, SALATIGA, INDONESIA",-7.282611616,110.4608388,50715,생산법인,.,,C. 제조업,기타 제품 제조업
동남아대양주,인도네시아,자카르타,마라나투랄,MARAH NATURAL,"JL. BOULEVARD BARAT, RUKO ITALIAN WALK BLOK B-43 4TH FL. KEC. KELAPA GADING, JAKARTA UTARA 14240, INDONESIA",-6.154762757,106.8946084,14240,판매법인,.,,G. 도매 및 소매업,
동남아대양주,인도네시아,자카르타,마음수련,TANGERANG MEDITASI (MEDITATION LIFE),"KONDOMINIUM AMARTAPURA TOWER A UNIT 36 E JL. SUTAN SYAHRIR #50, LIPPO KARAWACI 15810, INDONESIA",-6.232699504,106.6100436,15810,서비스법인,.,,"S. 협회 및 단체, 수리 및 기타 개인 서비스업",
동남아대양주,인도네시아,자카르타,마이네띠패키징,MAINETTI PACKAGING SOLUTION,"VENTURA BUILDING 5TH FLOOR, JI. R.A. KARTINI 26, CILANDAK, DKI JAKARTA 12430, INDONESIA",-6.291295402,106.7922592,12430,생산법인,.,,C. 제조업,섬유제품 제조업 (의복 제외)
동남아대양주,인도네시아,자카르타,마주엘,MAJUEL,"JL. KAMPUNG RAWA ILAT RT02,RW09 DESA DAYEUH, CILEUNGSI, BOGOR, JAWA BARAT, 16820, INDONESIA",-6.419169883,106.9727638,16820,생산법인,.,,C. 제조업,기타 제품 제조업
동남아대양주,인도네시아,자카르타,마주자야에느르기,MAJU JAYA ENERGI,"JL.RAYA SULTAN AGUNG KM.28 NO.39 MEDAN SATRIA, BEKASI 17132, INDONESIA",-6.20577047,106.9771499,17132,생산법인,.,,"M. 전문, 과학 및 기술 서비스업",
동남아대양주,인도네시아,자카르타,마타아리여행사,MATA ARI TRAVEL,"MAYAPADA TOWER 703B JL. JENDRAL SUDIRMAN KAV.28 JAKARTA SELATAN, INDONESIA",-6.21335157,106.8198479,12920,서비스법인,.,,"N. 사업시설 관리, 사업 지원 및 임대 서비스업",
동남아대양주,인도네시아,자카르타,막물시스팀 인도,PT. MAKMUR SISTIMIMDO PERKASA,"GRAND WIJAYA CENTER COMPLEX BLOCK G NO. 12-AB – 3RD FLOOR, JL. WIJAYA II, KEBAYORAN BARU, JAKARTA SELATAN 12160, INDONESIA",-6.253398568,106.8001165,12160,서비스법인,M&A,,F. 건설업,
동남아대양주,인도네시아,자카르타,멀티 원 플러스,PT. MULTI ONE PLUS,"JL. BAROKAH, KP PARUNGDENGDEK, WANAHERANG, KEC. GN. PUTRI, BOGOR, JAWA BARAT 16965, INDONESIA",-6.425233643,106.9400206,16965,생산법인,합작투자,,C. 제조업,"의료, 정밀, 광학 기기 및 시계 제조업"
동남아대양주,인도네시아,자카르타,멀티콘스트럭시우따마,MULTI KONSTRUKSI UTAMA,"WISMA KORINDO LT 7, JL. M.T HARIYONO KAV. 62 JAKARTA SELATAN, INDONESIA",-6.243864211,106.844152,12780,서비스법인,.,,F. 건설업,
동남아대양주,인도네시아,자카르타,메가 블록 찔레곤,MEGABLOCK CILEGON,"JL. JEND. A.YANI, KOMP. RUKO CILEGON GREEN MEGABLOCK BLOK D3 NO 17, CIBEBER-CILEGON 42426, INDONESIA",-6.02838789,106.0755007,42426,서비스법인,.,,K. 금융 및 보험업,
동남아대양주,인도네시아,자카르타,메가 폼인도 자야,MEGA FOAMINDO JAYA,"KAWASAN INDUSTRI CIKUPA MAS KM. 17, JL. TELAGA MAS RAYA NO.17, CIKUPA, TANGERANG 15710, INDONESIA",-6.209697634,106.5124905,15710,생산법인,.,,C. 제조업,기타 제품 제조업
동남아대양주,인도네시아,자카르타,메디슨자야라야,MEDISON JAYA RAYA,"WISMA TENDEAN 5TH FL, JL.KAPT. P. TENDEAN NO.7, JAKARTA SELATAN, INDONESIA",-6.240527384,106.8217959,12790,판매법인,.,,G. 도매 및 소매업,
동남아대양주,인도네시아,자카르타,메리츠코린도보험회사,PT. MERITZ KORINDO INSURANCE,"WISMA KORINDO JL. LETJEN M.T. HARYONO NO.KAV 62 RT.2,RW.2, PANCORAN KEC. PANCORAN, JAKARTA, DAERAH KHUSUS IBUKOTA JAKARTA, INDONESIA",-6.243853546,106.8442271,12780,기타,M&A,메리츠보험,K. 금융 및 보험업,
동남아대양주,인도네시아,자카르타,메아리자야,MEARI JAYA,"JL. SANIAN BOJONG NANGKA LEGOK TANGERANG, INDONESIA",-6.260169661,106.6060165,15122,생산법인,.,,C. 제조업,기타 제품 제조업
동남아대양주,인도네시아,자카르타,명문인도네시아,MYOUNG MOON INDONESIA,"JL. KRANJI BLOK F 12, NO. 7LC CIBATU, KAWASAN DELTA SILIKON DUA, CIKARANG SELATAN 17550, INDONESIA",-6.328688922,107.1542588,17550,생산법인,.,,C. 제조업,"전자 부품, 컴퓨터, 영상, 음향 및 기통신장비 제조업"
동남아대양주,인도네시아,자카르타,명성머쉬너리,MYUNG SEONG MACHINERY,"RUKAN GRAHA CEMPAKA MAS BLOCK D NO.24 JL LETJEN SUPRAPTO, SUMUR BATU, KEMAYORAN, JAKARTA PUSAT 10640, INDONESIA",-6.165012526,106.8755508,10640,"서비스법인, 판매법인",.,,G. 도매 및 소매업,
동남아대양주,인도네시아,자카르타,모토닉 인도파트,PT. MOTONIC INDOPARTS,"JL. LETJEN. SUPRAPTO, RUKAN BLOK C NO. 17, GRAHA CEMPAKA MAS, SUMUR BATU, KEMAYORAN, JAKARTA PUSAT, DKI JAKARTA, INDONESIA",-6.164575188,106.8731368,10640,판매법인,단독투자,,G. 도매 및 소매업,
동남아대양주,인도네시아,자카르타,무띠아라부사나인다,MUTIARA BUSANA INDAH,"JL.RAYA MARIBAYA KM 10 NO.28 KEC KRAMAT, KAB.TEGAL 52181, INDONESIA",-6.868899264,109.2248428,52181,"생산법인, 서비스법인",.,,C. 제조업,섬유제품 제조업 (의복 제외)
동남아대양주,인도네시아,자카르타,무아라뚱갈,MUARA TUNGGAL,"JL. PERINTIS KEMERDEKAAN NO126, KP KEBUN RANDU, KEL CIBADAK, SUKABUMI, INDONESIA",-6.910910126,106.7820481,43351,생산법인,.,,C. 제조업,섬유제품 제조업 (의복 제외)
동남아대양주,인도네시아,자카르타,물티 솔루시 누산따라,MULTI SOLUSI NUSANTARA,"THE PROMINENCE OFFICE TOWER 16TH FL. JL. JALUR SUTERA BAR. NO.15, ALAM SUTERA, TANGERANG, BANTEN 15143, INDONESIA",-6.22504311,106.6549051,15143,서비스법인,.,,"S. 협회 및 단체, 수리 및 기타 개인 서비스업",
동남아대양주,인도네시아,자카르타,물티베스트리인도네시아,MULTI BESTRI INDONESIA,"GRAND WIJAYA CENTER BLOK H-26, JL. WIJAYA 2, JAKARTA SELATAN 12780, INDONESIA",-6.250793448,106.7994077,12780,생산법인,.,,G. 도매 및 소매업,
동남아대양주,인도네시아,자카르타,미다스 인도네시아,MIDAS INDONESIA,"JL. RAYA DKI, KP. CIANGIR RT 003,002 DS. CIANGIR, KEC. LEGOK, KAB. TANGERANG 15820, INDONESIA",-6.320872341,106.5260846,15820,생산법인,.,해리앤선스,C. 제조업,기타 제품 제조업
동남아대양주,인도네시아,자카르타,미란메탈 인도네시아,PT. MIRAN METAL INDONESIA,"JL. RAYA SERANG KM 16, SUKAMULYA, CIKUPA, TANGERANG, INDONESIA",-6.19425447888302,106.474021020077,15710,생산법인,합작투자,,C. 제조업,금속 가공제품 제조업 (기계 및 가구 제외)
동남아대양주,인도네시아,자카르타,미래에셋대우 인도네시아 현지법인,PT MIRAE ASSEKURITAS INDONESIA,"TREASURY TOWER 50TH FLOOR, SCBD LOT 28, JL. JEND. SUDIRMAN NO.52-54, RT.5,RW.3, SENAYAN, KEBAYORAN BARU, SOUTH JAKARTA CITY, JAKARTA 12190, INDONESIA",-6.22752093751684,106.806395612244,12190,해외지사,M&A,미래에셋대우,K. 금융 및 보험업,
동남아대양주,인도네시아,자카르타,미성인도네시아,MISUNG INDONESIA,"JL. RAYA CAKUNG CILINCING KAWASAN BERIKAT NUSANTARA JL. JAWA 5 BLOK C-23 JAKARTA UTARA, INDONESIA",-6.14454314031594,106.936110056463,14140,생산법인,.,미성상사,C. 제조업,기타 제품 제조업
동남아대양주,인도네시아,자카르타,미원인도네시아(자카르타),MIWON INDONESIA,"JL. PERINTIS KEMERDEKAAN NO.1-3 PULO GADUNG, JAKARTA 13260, INDONESIA",-6.18159469356861,106.908375920634,13260,생산법인,.,대상,C. 제조업,식료품 제조업
동남아대양주,인도네시아,자카르타,미트라 아이코닉 아시아,MITRA ICONIC ASIA,"JALAN GADING SERPONG BOULEVARD KAV M5 NO. 17-18 LT. 3, KELAPA DUA, TANGERANG 15810, INDONESIA",-6.24747829212918,106.626624642823,15810,서비스법인,.,,"M. 전문, 과학 및 기술 서비스업",
동남아대양주,인도네시아,자카르타,미트라메탈,MITRA METAL,"JL. RAYA SERANG KM.18, 8 CIKUPA TANGERANG, INDONESIA",-6.21043121221959,106.492036649219,15710,생산법인,.,,C. 제조업,기타 기계 및 장비 제조업
동남아대양주,인도네시아,자카르타,미트라시엠비인도네시아,MITRA CMB INDONESIA,"JL. KH. AGUS SALIM, RT.001,RW.005, PORIS PLAWAD, KEC. CIPONDOH, KOTA TANGERANG, BANTEN, INDONESIA",-6.16754667504029,106.661538070317,15141,생산법인,.,,C. 제조업,고무 및 플라스틱제품 제조업
동남아대양주,인도네시아,자카르타,민우가르멘트숙세스,MINU GARMENT SUKSES,"KP. BOJONG LARANG RT. 09,04 PONDOKKASO LANDEUH, PARUNGKUDA, SUKABUMI, JAWA BARAT 43157, INDONESIA",-6.81932096645141,106.767607723197,43157,생산법인,.,,C. 제조업,섬유제품 제조업 (의복 제외)
동남아대양주,인도네시아,자카르타,밀란인도네시아,MILAN INDONESIA,"JL. RAYA PENOLIH DESA PENOLIH RT 01,RW 02, KALIGONDANG, PURBALINGGA, JAWA TENGAH, INDONESIA",-7.38979588027283,109.429377128438,53391,생산법인,.,,C. 제조업,기타 제품 제조업
동남아대양주,인도네시아,자카르타,바람소주,PT. BARAM SEGAR INDONESIA,"JL. JEND. SUDIRMAN MODERNLAND, MODERNLAND CIPONDOH BLOK NO. 22, TANGERANG, BANTEN 15148, INDONESIA",-6.2208020525736,106.733425944769,15148,"생산법인, 서비스법인, 판매법인",합작투자,,C. 제조업,음료 제조업
동남아대양주,인도네시아,자카르타,바스프인도네시아,BASF INDONESIA,"27TH FLOOR, DBS BANK TOWER, JL.PROF.DR.SATRIO KAV 3-5, JAKARTA, INDONESIA",-6.22385643534679,106.823399122088,12940,생산법인,.,,C. 제조업,화학 물질 및 화학제품 제조업 (의약품 제외)
동남아대양주,인도네시아,자카르타,바이오 텍 자야 인도네시아,BIO TECH JAYA INDONESIA,"JL. WISATA JANGARI KP. CIDAMAR RT.001. RW 008 CIANJUR 43292, INDONESIA",-6.75738191065675,107.249705318314,43292,생산법인,.,,C. 제조업,기타 제품 제조업
동남아대양주,인도네시아,자카르타,바주인다,DOOSAN DUNIA BUSANA,"JL. RAYA PARUNG KUDA KM.21 KEC. PARUNG KUDA KAB. SUKABUMI, INDONESIA",-6.84268455944697,106.754220284556,43357,생산법인,.,,C. 제조업,섬유제품 제조업 (의복 제외)
동남아대양주,인도네시아,자카르타,발리데와타,BALI DEWATA,"JL. WARIBANG NO. 15 KESIMAN DENPASAR TIMUR BALI, INDONESIA",-8.65260061994735,115.251329212256,80237,판매법인,.,,G. 도매 및 소매업,
동남아대양주,인도네시아,자카르타,방운마주레스따리,BANGUN MAJU LESTARI,"JL. MOJO KM3, DUSUN BULU DESA CELEP, KEC-JATEN, KAB-KARANGANYAR 57731, INDONESIA",-7.49930602790703,111.001716679812,57731,서비스법인,.,,H. 운수 및 창고업,
동남아대양주,인도네시아,자카르타,방운부사나마주,BANGUN BUSANA MAJU,"KBN CAKUNG JL. MADURA VIII BLOK D,05C CAKUNG CILINCING JAKARTA UTARA, INDONESIA",-6.1446673540585,106.93592682294,14140,생산법인,.,,C. 제조업,섬유제품 제조업 (의복 제외)
동남아대양주,인도네시아,자카르타,방운우사하마주,BANGUN USAHA MAJU,"JL.RAYA NAROGONG KM. 15 PANGKALAN 6, KP. BAKOM RT. 03 RW 05 LIMUSNUNGGAL, CILEUNGSI, BOGOR 16820, INDONESIA",-6.36040974725899,106.976717829178,16820,생산법인,.,,C. 제조업,섬유제품 제조업 (의복 제외)
동남아대양주,인도네시아,자카르타,방운자야우타마,BANGUN JAYA UTAMA,"JI. DANAU SUNTER UTARA KOMPLEKS PERKANTORAN SUNTER PERMAI BLOCK A NO. 8 SUNTER PODOMORO JAKARTA-UTARA 14350, INDONESIA",-6.13958096655677,106.876480412789,14350,생산법인,.,,F. 건설업,
동남아대양주,인도네시아,자카르타,방운찌뜨라인다,BANGUN CITRA INDAH,"JL. MAYJEND SUNGKONO NO.7A SURABAYA, INDONESIA",-7.29200930276377,112.724131522368,60256,생산법인,.,,C. 제조업,"가죽, 가방 및 신발 제조업"
동남아대양주,인도네시아,자카르타,백산인도네시아,PT BAIKSAN INDONESIA,"JL. BUMIMAS 1 NO.7 KAWASAN INDUSTRI CIKUPAMAS, CIKUPA, TANGERANG, INDONESIA",-6.21419891181782,106.513059273212,15710,생산법인,단독투자,백산,C. 제조업,"가죽, 가방 및 신발 제조업"
동남아대양주,인도네시아,자카르타,범아 무역,BUMA APPAREL INDUSTRY,"JL. RAYA PURWADADI, DUSUN KALIANGBAWANG, RT.15 RW08, WANAKERTA, PURWADADI SUBANG, JAWA BARAT 41261, INDONESIA",-6.46788385285365,107.689726675842,41261,생산법인,.,,C. 제조업,섬유제품 제조업 (의복 제외)
동남아대양주,인도네시아,자카르타,범화칼라,PT. BEMHWA COLOUR,"JL.GATOT SUBROTO KM 6, 2 JATAKE JATIUWUNG TANGERANG 15135 -, INDONESIA",-6.1963228370477,106.583346082665,15135,생산법인,단독투자,,C. 제조업,고무 및 플라스틱제품 제조업
동남아대양주,인도네시아,자카르타,법무법인(유) 원,ONE LAW PARTNERS,"GOWORK PASIFIC PLACE 2ND FL. SCBD LOT 11A, JL. JEND. SUDIRMAN NO. 52-53, KEC. KEBAYORAN BARU, JAKARTA SELATAN 12190, INDONESIA",-6.22406309803837,106.809958565526,12190,서비스법인,.,법무법인 원,"M. 전문, 과학 및 기술 서비스업",
동남아대양주,인도네시아,자카르타,베이인두스트리알 인도네시아,BAY INDUSTRIAL INDONESIA,"KARAWACI OFFICE PARK BLOK D-25 PANUNGGANGAN BARAT, TANGERANG, INDONESIA",-6.22248140180198,106.618734917145,15138,생산법인,.,"Bay Industrial CO., LTD.",C. 제조업,기타 운송장비 제조업
동남아대양주,인도네시아,자카르타,베테 프레시타시 우타마,PT. PRESTASI UTAMA,"PERGUDANGAN SALEMBARAN 1 NO. 88 SALEMBARAN JATI, KECAMATAN KOSAMBI, DADAP TANGERANG 15214, INDONESIA",-6.08477103016084,106.702524667481,15214,생산법인,M&A,,C. 제조업,고무 및 플라스틱제품 제조업
동남아대양주,인도네시아,자카르타,벤택 아바디,BENTECH ABADI,"JL. MITRA MAS RAYA BLOK S F B GEDUNG E2 RT. 09 RW. 04 TALAGA SARI, CIKUPA, TANGERANG, BANTEN 15710, INDONESIA",-6.20725195382344,106.515361630697,15710,생산법인,.,,C. 제조업,화학 물질 및 화학제품 제조업 (의약품 제외)
동남아대양주,인도네시아,자카르타,변호사이승민법률사무소,YSM & PARTNERS,"KOREA CENTER BUILDING SUITE 202, JL. JEND GATOT SUBROTO NO 58, JAKARTA 12950, INDONESIA",-6.23898194994223,106.833016692169,12950,서비스법인,.,,"M. 전문, 과학 및 기술 서비스업",
동남아대양주,인도네시아,자카르타,보민쁘르마따아바디,BOMIN PERMATA ABADI,"JL. RAYA JEPARA-KUDUS RT04 RW002, DS.SENGONBUGEL, JEPARA JAWA TENGAH, INDONESIA",-6.71897321896901,110.73474851152,59465,생산법인,.,,C. 제조업,섬유제품 제조업 (의복 제외)
동남아대양주,인도네시아,자카르타,보빈아바디,BOBIN ABADI,"JL. SWADAYA KP. JAMPANG RT. 001,03, DS WANAHERANG, KEC. GUNUNG PUTRI, BOGOR, INDONESIA",-6.4140073347121,106.939975809233,16965,생산법인,.,,C. 제조업,섬유제품 제조업 (의복 제외)
동남아대양주,인도네시아,자카르타,보성인도네시아,BOSUNG INDONESIA,"JL. RAYA RAJEG DESA SINDANGSARI KEC. PASAR KEMIS, TANGERANG, BANTEN 15560, INDONESIA",-6.16041740670077,106.531777946299,15560,생산법인,.,보성,C. 제조업,"펄프, 종이 및 종이제품 제조업"
동남아대양주,인도네시아,자카르타,보양산업,BOYANG INDUSTRIAL,"JL. TEBET RAYA NO.22 BLOK A TEBET BARAT, KEC. TEBET, INDONESIA",-6.22991197826465,106.850690691259,12810,생산법인,.,,C. 제조업,기타 제품 제조업
동남아대양주,인도네시아,자카르타,보영 인도네시아,BOO YOUNG INDONESIA,"JL. MODERN INDUSTRI IV NO. 6A&6B KAWASAN INDUSTRY MODERN CIKANDE, SERANG, BANTEN, 42185, INDONESIA",-6.19022744384763,106.330922275862,42185,생산법인,.,,C. 제조업,"가죽, 가방 및 신발 제조업"
동남아대양주,인도네시아,자카르타,볼레넷인도네시아,BOLEH NET INDONESIA,"CYBER BUILDING 10TH FL., JL. KUNINGAN BARAT NO.8, JAKARTA 12710, INDONESIA",-6.23828103616419,106.824754341481,12710,서비스법인,.,,J. 정보통신업,
동남아대양주,인도네시아,자카르타,봉만인터네셔날,BONGMAN INTERNATIONAL,"JL. RAYA CIBENING NO.205 PURWAKARTA, JAWA BARAT 41181, INDONESIA",-6.50751362429863,107.461341712537,41181,생산법인,.,,C. 제조업,"의복, 의복 액세서리 및 모피제품 제조업"
동남아대양주,인도네시아,자카르타,부경인도네시아,BUKYUNG INDONESIA,"JL. RAYA KARAWANG-CIKAMPEK KM87.7 KARAWANG JAWA BARAT, INDONESIA",-6.38575547262375,107.461973284262,41373,생산법인,.,부경실업,C. 제조업,"가죽, 가방 및 신발 제조업"
동남아대양주,인도네시아,자카르타,부광 메디칼,BU KWANG MEDICAL,"JL. VIHARA KP. CANDU RT.02,RW.07 CURUG KULON, CURUG, TANGERANG, INDONESIA",-6.53431763727112,106.763171682041,15820,생산법인,.,BU KWANG MEDICAL INC.,C. 제조업,의료용 물질 및 의약품 제조업
동남아대양주,인도네시아,자카르타,부미투어,BUMI TOUR,"JL. SENAYAN NO.43 BLOK S KEBAYORAN BARU JAKARTA SELATAN, INDONESIA",-6.23516713250148,106.815967896622,12180,서비스법인,.,,"N. 사업시설 관리, 사업 지원 및 임대 서비스업",
동남아대양주,인도네시아,자카르타,부사나인다글로벌,BUSANA INDAH GLOBAL,"JL. CIREUNDEU NO. 10 RT. 01, RW. 01, DESA CIHEULANG TONGGOH CIBADAK KAB. SUKABUMI, JAWA BARAT, INDONESIA",-7.00839366330259,106.955410920725,43351,생산법인,.,,C. 제조업,섬유제품 제조업 (의복 제외)
동남아대양주,인도네시아,자카르타,부사나프리마글러벌,BUSANA PRIMA GLOBAL,"JL. MERCEDEZ BENZ NO.223A DS. CICADAS KEC. GUNUNG PUTRI BOGOR-JAWA BARAT 16964, INDONESIA",-6.43438428718206,106.931993119134,16964,생산법인,.,,C. 제조업,섬유제품 제조업 (의복 제외)
동남아대양주,인도네시아,자카르타,부산사랑,BOOSAN SARANG,"JL. RAYA SERANG KM 16.8 RT 06,02 DS. TALAGA, CIKUPA, TANGERANG 15710, INDONESIA",-6.19932335744832,106.474606187994,15710,생산법인,.,,C. 제조업,"가죽, 가방 및 신발 제조업"
동남아대양주,인도네시아,자카르타,뷔디에프 자야 인도네시아,VDF JAYA INDONESIA,"RUKO ALICANTE A-22, PARAMOUNT LAKES GADING SERPONG, KEL. MEDANG, KEC. PAGEDANGAN, KAB. TANGERANG, BANTEN 15334, INDONESIA",-6.26623037394027,106.622361103253,15334,서비스법인,.,,"N. 사업시설 관리, 사업 지원 및 임대 서비스업",
동남아대양주,인도네시아,자카르타,뷰티 브라택,BEAUTY BRA-TECH,"JL. TELAGA MAS RAYA NO. 24 KAWASAN INDUSTRI CIKUPA MAS TANGERANG, INDONESIA",-6.21598503218754,106.502786438374,15710,생산법인,.,,C. 제조업,섬유제품 제조업 (의복 제외)
동남아대양주,인도네시아,자카르타,브라가카렉스인도,BRAGA CAREX INDO,"JL. SATRIA RAYA II NO.12 BANDUNG, INDONESIA",-6.9493388208969,107.572870320702,40224,생산법인,.,,C. 제조업,기타 제품 제조업
동남아대양주,인도네시아,자카르타,브라더신도 사우다라 스자띠,BROTHERSINDO SAUDARA SEJATI,"JL. MANGGA DUA RAYA (KOMPLEK HARCO MANGGA DUA) BLOK H NO. 5B JAKARTA 11110, INDONESIA",-6.1388372565109,106.828345639421,11110,서비스법인,.,,"M. 전문, 과학 및 기술 서비스업",
동남아대양주,인도네시아,자카르타,블루 로즈 나라도,BLUE ROSE NARADO,"JALAN RAYA CICADAS RT.02 RW.15, DESA. CICADAS, KEC. GUNUNG PUTRI, KAB. BOGOR, INDONESIA",-6.42041032286403,106.932361285479,16964,기타,단독투자,,C. 제조업,"가죽, 가방 및 신발 제조업"
동남아대양주,인도네시아,자카르타,블루스카이인도누사,BLUE SKY INDONUSA,"THE BELLEZZA SHOPPING ARCADE LT.2 UNIT 269-271, JL.LETJEN SOEPERNO NO. 34, ARTERI PERMATA HIJAU, JAKARTA, INDONESIA",-6.2201358106522,106.78195123335,12210,"생산법인, 판매법인",단독투자,,C. 제조업,기타 제품 제조업
동남아대양주,인도네시아,자카르타,비나두타뻐르카사,BINA DUTA PERKASA,"JL. PAHLAWAN NO.364 DESA LEUWINUTUNG KEC. CITEUREUP-BOGOR, INDONESIA",-6.51036895712348,106.864568363813,16810,생산법인,.,,C. 제조업,화학 물질 및 화학제품 제조업 (의약품 제외)
동남아대양주,인도네시아,자카르타,비씨카드아시아패시픽,BC CARD ASIA PACIFIC,"EQUITY TOWER, 35TH FL. UNIT 35B, SCBD LOT 9, JL. JEND. SUDIRMAN KAV. 52-53, JAKARTA 12190, INDONESIA",-6.22609145589712,106.808827394915,12190,서비스법인,.,비씨카드,"M. 전문, 과학 및 기술 서비스업",
동남아대양주,인도네시아,자카르타,비에스 에너지,BS ENERGY,"ARTHA GRAHA BUILDING 30TH FLOOR, JL. JENDRAL SUDIRMAN KAV. 52-53 JAKARTA 12190, INDONESIA",-6.22405542854311,106.811133397262,12190,서비스법인,.,,"E. 수도, 하수 및 폐기물 처리, 원료 재생업",
동남아대양주,인도네시아,자카르타,비에스인도네시아,BS INDONESIA,"JL. JABABEKA X BLOK F7 NO.26 KAWASAN INDUSTRI JABABEKA CIKARANG, INDONESIA",-6.27625306600832,107.139851189352,17520,생산법인,.,,C. 제조업,자동차 및 트레일러 제조업
동남아대양주,인도네시아,자카르타,비에스폴리머,BS POLYMER,"JL. KAPAS RAYA NO.17 MAKASAR, UJUNG PANDANG, INDONESIA",-5.09176324437397,119.485988009836,90241,생산법인,.,,C. 제조업,고무 및 플라스틱제품 제조업
동남아대양주,인도네시아,자카르타,비엔지컨설팅,PT. BNG CONSULTING,"MENARA JAMSOSTEK, MENARA SELATAN, 6TH FLOOR SUITE 601 JL.JEND.GATOT SUBROTO KAV 38 JAKARTA SELATAN",-6.24116288172104,106.835924295072,12710,서비스법인,단독투자,,"M. 전문, 과학 및 기술 서비스업",
동남아대양주,인도네시아,자카르타,비전랜드글로벌,VISIONLAND GLOBAL APPAREL,"DESA TEGALAREN, KECAMATAN LIGUNG, KABUPATEN MAJELENGKA 45456, INDONESIA",-6.70158068976972,108.270031315977,45456,생산법인,.,비전랜드,C. 제조업,섬유제품 제조업 (의복 제외)
동남아대양주,인도네시아,자카르타,비전랜드다잉엔피니싱,VISIONLAND DYEING AND FINISHING,"JL. IRIAN BLOK E-25, KBN JL. RAYA CAKUNG CILINCING JAKARTA UTARA 14140, INDONESIA",-6.13803115391592,106.931740418797,14140,서비스법인,.,비전랜드,"M. 전문, 과학 및 기술 서비스업",
동남아대양주,인도네시아,자카르타,비전랜드스마랑,VISIONLAND SEMARANG,"JL. RAYA SOEKARNO-HATTA KM 26, BERGAS, SEMARANG 50552, INDONESIA",-7.18051828493164,110.423367837149,50552,생산법인,.,비전랜드,C. 제조업,섬유제품 제조업 (의복 제외)
동남아대양주,인도네시아,자카르타,비전랜드인도네시아,VISIONLAND INDONESIA,"JL. TERNATE BLOK D-05A, KBN JL. RAYA CAKUNG CILINCING JAKARTA UTARA 14140, INDONESIA",-6.14226406243471,106.939406018488,14140,생산법인,.,비전랜드,C. 제조업,섬유제품 제조업 (의복 제외)
동남아대양주,인도네시아,자카르타,비즈코인도네시아,BEESCO INDONESIA,"JL.RAYA KARAWANG CIKAMPEK KM.87, 7 TAMELANG, PURWASARI, KARAWANG, JAWA BARAT, INDONESIA",-6.38719925219179,107.418270846606,41373,생산법인,.,비즈코,C. 제조업,"가죽, 가방 및 신발 제조업"
동남아대양주,인도네시아,자카르타,비즈풋웨어,BEES FOOTWEAR INC.,"JL. RAYA SERANG JAKARTA KM. 80, KASERANGAN, KEC. CIRUAS, SERANG, BANTEN 42182, INDONESIA",-6.12924019870932,106.265320384691,42182,생산법인,.,비즈코,C. 제조업,"가죽, 가방 및 신발 제조업"
동남아대양주,인도네시아,자카르타,빅 스타 인터내셔날 트래딩,BIG STAR INTERNATIONAL TRADING,"RUKO GAJAH MADA NO. 2008, 2ND FL. JL. BOULEVARD GAJAH MADA, KEL. PANUNGGANG BARAT, KEC. CIBODAS, TANGERANG 15139, INDONESIA",-6.2163449947406,106.62131452575,15139,생산법인,.,,C. 제조업,"가죽, 가방 및 신발 제조업"
동남아대양주,인도네시아,자카르타,빅-오션트란스포르따마,BIG OCEAN TRANSPORTAMA,"KOKAN PERMATA KELAPA GADING, JL.BOULEVARD BUKIT GADING RAYA BLOCK C 18. KELAPA GADING JAKARTA UTARA 14240, INDONESIA",-6.15871165374286,106.893450386875,14240,서비스법인,.,,H. 운수 및 창고업,
동남아대양주,인도네시아,자카르타,빅인도 인티 만디리,BIGINDO INTI MANDIRI,"JL. RAYA SERANG KM. 13, 8 BITUNG, CIKUPA, TANGERANG 15710, INDONESIA",-6.19776844951631,106.474650379046,15710,생산법인,.,,C. 제조업,섬유제품 제조업 (의복 제외)
동남아대양주,인도네시아,자카르타,빈땅 인도네시아,BINTANG INDONESIA,"KAWASAN INDUSTRI MILLENIUM TIGARAKSA JL. MILLENIUM RAYA BLOK F.3,1 PEUSAR, PANONGAN, BANTEN, INDONESIA",-6.24097660275864,106.496153835225,15710,생산법인,.,,C. 제조업,"가죽, 가방 및 신발 제조업"
동남아대양주,인도네시아,자카르타,빈땅 자야 두니아,BINTANG JAYA DUNIA,"KAWASAN INDUSTRI PERGUDANGAN CIKUPA MAS JL. TELAGA MAS RAYA NO. 26 DESA TALAGA CIKUPA TANGERANG, INDONESIA",-6.21353468578394,106.512883083387,15710,생산법인,.,,C. 제조업,"가죽, 가방 및 신발 제조업"
동남아대양주,인도네시아,자카르타,빈땅 자야 프로티나 피드밀,BINTANG JAYA PROTEINA FEEDMILL,"JL. RAYA CIKANDE-RANGKASBITUNG KM 10 DESA JAWILAN, KEC. JAWILAN, KAB. SERANG, INDONESIA",-6.2686378886231,106.347219215974,11620,생산법인,.,,C. 제조업,화학 물질 및 화학제품 제조업 (의약품 제외)
동남아대양주,인도네시아,자카르타,빈땅바루숙세스,BINTANG BARU SUKSES,"JL. RAYA LOGIKOBONG -BONGAS, DESA LOGIKOBONG, RT.01 RW.07 SUMBER JAYA, MAJALENGKA, JAWA BARAT, 45455., INDONESIA",-6.60230195284975,108.31293821076,45455,생산법인,.,,C. 제조업,섬유제품 제조업 (의복 제외)
동남아대양주,인도네시아,자카르타,빈땅바루인도네시아,BINTANG BARU INDONESIA,"JL. TELESONIC NO.1 KM 8 JATAKE JATIUWUNG TANGERANG, INDONESIA",-6.20528252379825,106.568514125882,15135,생산법인,.,,C. 제조업,섬유제품 제조업 (의복 제외)
동남아대양주,인도네시아,자카르타,빈땅자야쏠루션,PT. BINTANG JAYA SOLUTION,"JL. CILEDUG RAYA 234A KEBAYORAN LAMA JAKARTA SELATAN, INDONESIA",-6.23721129110859,106.776232364417,12230,생산법인,단독투자,,C. 제조업,기타 제품 제조업
동남아대양주,인도네시아,자카르타,빤다이 다강 우따마(뻬데우),PANDAI DAGANG UTAMA(PDU),"GEDUNG CYBER, LT. 10, JL. KUNINGAN BARAT NO. 8, INDONESIA",-6.23846438270531,106.82414700799,12710,판매법인,.,,G. 도매 및 소매업,
동남아대양주,인도네시아,자카르타,빤짜리마삭티,PANCA LIMA SAKTI,"JL. SENAYAN NO.55 KEBAYORAN BARU BLOK S JAKARTA SELATAN, INDONESIA",-6.23592996608147,106.817999022127,12180,서비스법인,.,,"S. 협회 및 단체, 수리 및 기타 개인 서비스업",
동남아대양주,인도네시아,자카르타,뻐르마타가먼트,PERMATA GARMENT,"JL. HAJI DIMUN 1 NO.70 RT 03 RW 24, SUKA MAJU, CILODONG, DEPOK, INDONESIA",-6.40970584684267,106.852888636156,16414,생산법인,.,,C. 제조업,섬유제품 제조업 (의복 제외)
동남아대양주,인도네시아,자카르타,뻐르타-삼탄가스,PERTA-SAMTAN GAS,"JALAN NOMOR 8 KOMPERTA SUNGAI GERONG, KEC. BANYUASIN I, KAB BANYUASIN, SUMATERA SELATAN, 30962, INDONESIA",-2.99542377491027,104.856552537118,30962,생산법인,.,,B. 광업,
동남아대양주,인도네시아,자카르타,뻬떼 코르시아 보안 뻐,PT. KORSIA BOAN PERKSA,"JL. RAYA PASAR MINGGU KAV.16, JAKARTA SELATAN 12720, INDONESIA",-6.27049388613406,106.845972819117,12720,서비스법인,M&A,,"N. 사업시설 관리, 사업 지원 및 임대 서비스업",
동남아대양주,인도네시아,자카르타,뻬떼 탑스코스틸우따마,PT. TOPSCO STEEL UTAMA,"JL. AUSTRALIA I BLOK B1,3 KAWASAN INDUSTRI KRAKATAU STEEL CILEGON BANTEN, INDONESIA",-6.00566007192516,106.017673439769,42431,생산법인,합작투자,,C. 제조업,금속 가공제품 제조업 (기계 및 가구 제외)
동남아대양주,인도네시아,자카르타,뿌꾸 브낭사리,PUKU BENANGSARI,"KBN CAKUNG JL. MADURA 4 BLOK D-2 KBN CAKUNG CILINCING JAKARTA UTARA, INDONESIA",-6.13845639970624,106.936682729261,14140,생산법인,.,,C. 제조업,섬유제품 제조업 (의복 제외)
동남아대양주,인도네시아,자카르타,뿌뜨라한국,PUTRA HANKUK,"KOREA CENTRE ROOM NO.401 JL. JEND. GATOT SUBROTO KAV. 58 JAKARTA SELATAN, INDONESIA",-6.24121249353907,106.836785714375,12950,서비스법인,.,,F. 건설업,
동남아대양주,인도네시아,자카르타,뿌르나마 아시 수르,PURNAMA ASIH SUR,"KP. CIPEUTEUY RT.11,2 DS.CILEGONG KEC JATILUHUR, KAB PURWAKATA JAWA BARAT 41152, INDONESIA",-6.5363106998072,107.417684850741,41152,생산법인,.,,C. 제조업,섬유제품 제조업 (의복 제외)
동남아대양주,인도네시아,자카르타,뿌트라파일인다,PUTRA PILE INDAH,"BEKASI INTERNATIONAL INDUSTRIAL ESTATE, BLOCK C5, NO.1, BEKASI 17550, JABAR, INDONESIA",-6.33523635244434,107.128703130163,17550,생산법인,.,,C. 제조업,섬유제품 제조업 (의복 제외)
동남아대양주,인도네시아,자카르타,쁘라따마아바디인더스트리,PT. PRATAMA ABADI INDUSTRI,"JL. RAYA SERPONG KM 7 PAKUALAM, SERPONG UTARA, TANGERANG SELATAN, BANTEN, INDONESIA",-6.25211302614317,106.650298132159,15325,생산법인,단독투자,,C. 제조업,"가죽, 가방 및 신발 제조업"
동남아대양주,인도네시아,자카르타,쁘르띠위자카르타,PERTIWI JAKARTA,"PRISMA KEDOYA PLAZA RUKO NO A,8 JL. PERJUANGAN RAYA, KEBON JERUK, INDONESIA",-6.19048716424608,106.757860647627,11530,생산법인,.,,C. 제조업,섬유제품 제조업 (의복 제외)
동남아대양주,인도네시아,자카르타,쁘리따 하라빤 아바디,PELITA HARAPAN ABADI,"JL. PANCASILA LV CICADAS, GUNUNG PUTRI, BOGOR 16964, INDONESIA",-6.43848122072631,106.929048153809,16964,생산법인,.,,C. 제조업,섬유제품 제조업 (의복 제외)
동남아대양주,인도네시아,자카르타,쁘삿 글로발 인도네시아,PESAT GLOBAL INDONESIA,"KP. CIELA, DS. WANAKERTA RT.01,RW.01 KEC. PURWADADI, KAB. SUBANG, WEST JAVA – 41261, INDONESIA",-6.48171770642055,107.683291067302,41261,생산법인,.,대농그룹,C. 제조업,섬유제품 제조업 (의복 제외)
동남아대양주,인도네시아,자카르타,사두아인도,SADUA INDO,"DUSUN GINTUNGAN RT 19 RW 11, KELURAHAN BUTUH, KEC. TENGARAN, KAB. SEMARANG, JAWA TENGAH 50775, INDONESIA",-7.39874505778194,110.50818382671,50775,생산법인,.,,C. 제조업,섬유제품 제조업 (의복 제외)
동남아대양주,인도네시아,자카르타,사라나 퍼블릭 로지스틱,PT. SARANA PUBLIC LOGISTICS,"GEDUNG GRAHA PRATAMA LANTAI 7, JL. MT. HARYONO, TEBET BARAT, TEBET, JAKARTA SELATAN, JAKARTA 12810, INDONESIA",-6.24235690454805,106.850240723387,12810,서비스법인,단독투자,,H. 운수 및 창고업,
동남아대양주,인도네시아,자카르타,사라나빈땅아바디텍스,SARANA BINTANG ABADI TEXTILE,"JL. MOCH TOHA NO.56 KM5.3, BANDUNG, INDONESIA",-6.93240518590864,107.606458767305,20243,생산법인,.,,C. 제조업,섬유제품 제조업 (의복 제외)
동남아대양주,인도네시아,자카르타,사무드라두니아포리자야아바디,SAMUDRA DUNIA POLY JAYA ABADI,"JL. RAYA RANCAENGKEK NO.389, DESA SOLOKAN JERUK, KEC. MAJARAYA, BANDUNG, JAWA BARAT, INDONESIA",-6.9996473576758,107.748699353814,40376,생산법인,.,,C. 제조업,섬유제품 제조업 (의복 제외)
동남아대양주,인도네시아,자카르타,사무드라인두스트리(하이론반둥),SAMUDRA INDUSTRI(HILON BANDUNG),"JL. KOPO KM. 11 NO.76 CILAMPENI, KATAPANG, BANDUNG, INDONESIA",-6.99199616306947,107.556337709634,40233,생산법인,.,,C. 제조업,섬유제품 제조업 (의복 제외)
동남아대양주,인도네시아,자카르타,사에끼웅굴뻐르까사,SAEKI UNGGUL PERKASA,"KAWASAN INDUSTRI PULOGADUNG JL. RAYA PULOGADUNG NO.41 JAKARTA TIMUR 13930, INDONESIA",-6.19966419119575,106.91736498642,13930,생산법인,.,,C. 제조업,섬유제품 제조업 (의복 제외)
동남아대양주,인도네시아,자카르타,산돌텍스틸,SANDOL TEXTILE,"KAWASAN INDUSTRI MILLENNIUM, JL. MILLENNIUM RAYA BLOK F.2 NO.03A DESA PEUSAR, PANONGAN, TANGERANG 15710, INDONESIA",-6.25909566396642,106.496113579728,15710,생산법인,.,,C. 제조업,"가죽, 가방 및 신발 제조업"
동남아대양주,인도네시아,자카르타,산이 인도 부사나,SANI INDO BUSANA,"JL.INDUSTRI NO. 1 RT,RW. 03,05 NUSA JAYA, JL. IMAM BONJOL KM. 2, 6 KARAWACI TANGERANG, INDONESIA",-6.2027120732751,106.620074496136,15116,생산법인,.,,C. 제조업,섬유제품 제조업 (의복 제외)
동남아대양주,인도네시아,자카르타,삼경자야가멘트,SAMKYUNG JAYA GARMENTS(GG),"JL. PTP NGOBO, DUSUN KRAJAN RT01, RW01, DS.WRINGIN PUTIH, BERGAS, KAB. SEMARANG, JAWA TENGAH 50552, INDONESIA",-7.16988398974936,110.439198398527,50552,생산법인,.,,C. 제조업,섬유제품 제조업 (의복 제외)
동남아대양주,인도네시아,자카르타,삼경자야부사나,SAMKYUNG JAYA BUSANA,"DUKUH TIRIS RT 01 RW 12, DESA CANDI, KEC AMPEL, KAB BOYOLALI, JAWA TENGAH 57352, INDONESIA",-7.45765741175471,110.55804746731,57352,생산법인,.,,C. 제조업,섬유제품 제조업 (의복 제외)
동남아대양주,인도네시아,자카르타,삼도카르야우타마텍스틸,SAMDO KARYA UTAMA TEXTILE,"JL. DESA CANGKORAH NO. 78, BATUJAJAR, BANDUNG, INDONESIA",-6.91914943540391,107.491692424977,40293,생산법인,.,,C. 제조업,섬유제품 제조업 (의복 제외)
동남아대양주,인도네시아,자카르타,삼뿌뜨라인띠,SAM PUTRA INTI,"JL. PANGKALAN II, CIKIWUL RT 003,03, BEKASI, INDONESIA",-6.33341300146728,106.992936989694,17152,생산법인,.,,C. 제조업,전기장비 제조업
동남아대양주,인도네시아,자카르타,삼삼자야가멘트,SAMSAM JAYA GARMENTS,"JL. SEOKARNO-HATTA KM 32 RT02 RW08, KEL HARJOSARI, KEC BAWEN, KAB SEMARANG 50661, INDONESIA",-7.22400759780479,110.43100573655,50661,생산법인,.,,C. 제조업,섬유제품 제조업 (의복 제외)
동남아대양주,인도네시아,자카르타,삼성 SDS,SAMSUNG SDS GLOBAL SCL INDONESIA," JL. PELTU RAHMAT SIDUP NO.2, RT.2,RW.2, KARET SEMANGGI, KEC. SETIABUDI, JAKARTA SELATAN, JAKARTA 12930, INDONESIA",-6.22989311163473,106.821363696136,12930,서비스법인,.,삼성SDS,"M. 전문, 과학 및 기술 서비스업",
동남아대양주,인도네시아,자카르타,삼성물산상사부문,SAMSUNG C&T CORPORATION (JAKARTA OFFICE),"GEDUNG THE ENERGY 26 FLOOR, JL. JEND. SUDIRMAN, LOT 11 A, SCBD KAV 52-53, JAKARTA, 12190, INDONESIA",-6.22607077937233,106.806323809628,12190,해외지사,.,삼성물산,G. 도매 및 소매업,
동남아대양주,인도네시아,자카르타,삼성엔지니어링,SAMSUNG ENGINEERING,"PLAZA BAPINDO MENARA MANDIRI 16TH FL KAV 54-55 JAKARTA 12190, INDONESIA",-6.22439260347818,106.807706809628,12190,해외지사,단독투자,삼성엔지니어링,C. 제조업,화학 물질 및 화학제품 제조업 (의약품 제외)
동남아대양주,인도네시아,자카르타,삼성전자(주),SAMSUNG ELECTRONIC INDONESIA,"TCC BATAVIA BULDING TOWER ONE, 25TH FLOOR JL. KH. MANSYUR KAV.126 CENTRAL JAKARTA 10220, INDONESIA",-6.2109380230852,106.815892550105,10220,생산법인,단독투자,삼성전자,C. 제조업,"전자 부품, 컴퓨터, 영상, 음향 및 기통신장비 제조업"
동남아대양주,인도네시아,자카르타,삼성프린트&팩인도네시아,SAMSUNG & PACK INDONESIA,"JL. MELATI RT.28,08, KEL. WANAHERANG, KEC. GUNUNG PUTRI, BOGOR, JAWA BARAT, INDONESIA",-6.3074157269999,106.969999409629,16965,생산법인,.,,C. 제조업,"펄프, 종이 및 종이제품 제조업"
동남아대양주,인도네시아,자카르타,삼성화재인도네시아법인,ASURANSI SAMSUNG TUGU,"AIA CENTRAL LT. 27, JL. JEND. SUDIRMAN KAV. 48 A, KARET SEMANGGI, JAKARTA SELATAN, JAKARTA, INDONESIA",-6.21804139661953,106.817000696136,12930,서비스법인,.,삼성화재해상보험,K. 금융 및 보험업,
동남아대양주,인도네시아,자카르타,삼원 코퍼 튜브 인도네시아,SAMWON COPPER TUBE INDONESIA,"JL. RAYA H TABRI DESA CIRARAB, KEC. LEGOK, KAB. TANGERANG, INDONESIA",-6.32665264764513,106.568982796137,15820,생산법인,.,,C. 제조업,"전자 부품, 컴퓨터, 영상, 음향 및 기통신장비 제조업"
동남아대양주,인도네시아,자카르타,삼원부사나인도네시아,SAMWON BUSANA INDONESIA 1,"KAWASAN INDUSTRI CANDI BLOK 11D, JL GATOT SUBROTO, NGALIYAN, SEMARANG 50156, INDONESIA",-7.00437164828877,110.349442362545,50156,생산법인,.,,C. 제조업,섬유제품 제조업 (의복 제외)
동남아대양주,인도네시아,자카르타,삼원부사나인도네시아,SAMWON BUSANA INDONESIA 2,"DAMARJATI KALINYAMATAN, KABUPATEN JEPARA, JAWA TENGAH 59462, INDONESIA",-6.69690995547379,110.746265498919,59462,생산법인,.,,C. 제조업,섬유제품 제조업 (의복 제외)
동남아대양주,인도네시아,자카르타,삼진브로트래드인도네시아,SAMJIN BROTHREAD INDONESIA,"JL.PINANG DELTA SILICON 3 BLOK F 16 NO.9 LIPPO CIKARANG BEKASI BARAT, INDONESIA",-6.35816912890663,107.145791313727,17530,생산법인,.,Samjin ST,C. 제조업,섬유제품 제조업 (의복 제외)
동남아대양주,인도네시아,자카르타,삼콘,SAMCON,"JL. RAYA SUBANG, CIKUMPAI, CAMPAKA, PURWAKARTA, JAWA BARAT, INDONESIA",-6.51344658933053,107.47425941942,41181,생산법인,.,삼화콘덴서,C. 제조업,"전자 부품, 컴퓨터, 영상, 음향 및 기통신장비 제조업"
동남아대양주,인도네시아,자카르타,삼크로 효성 아딜레스타리,SAMCRO HYOSUNG ADILESTARI,"JL.RAYA SERANG KM.17, 2 DESA BOJONG CIKUPA TANGERANG 15710, INDONESIA",-6.19997196763171,106.473947869041,15710,생산법인,.,삼부산업,C. 제조업,섬유제품 제조업 (의복 제외)
동남아대양주,인도네시아,자카르타,상일 인도네시아,SANGIL INDONESIA,"KP. CIRARAB RT. 02,03 DESA CIRARAB KEC. LEGOK KAB TANGERANG 15820, INDONESIA",-6.31801422101835,106.571468223121,15820,생산법인,.,,C. 제조업,전기장비 제조업
동남아대양주,인도네시아,자카르타,새암다야인도네시아,SAE-AM DAYA INDONESIA,"JL. INDUSTRI SELATAN 1A TOB NN 3 F CIKARANG BEKASI, INDONESIA",-6.32122869836457,107.128053831219,17350,생산법인,.,,C. 제조업,1차 금속 제조업
동남아대양주,인도네시아,자카르타,서경인도네시아,SEO KYUNG INDONESIA,"KBN CAKUNG, JL. SUMATERA BLOK E 08 A JAKARTA UTARA, INDONESIA",-6.13865243391227,106.93198253689,14140,생산법인,.,,C. 제조업,인쇄 및 기록매체 복제업
동남아대양주,인도네시아,자카르타,서린 니아가타마,SEOLIN NIAGATAMA,"JL. RAYA SERANG KM. 16 RT 002 RW 002 DESA TALAGA, CIKUPA - TANGERANG., INDONESIA",-6.20070753065812,106.473614631116,15710,생산법인,.,,C. 제조업,"가죽, 가방 및 신발 제조업"
동남아대양주,인도네시아,자카르타,서림인도네시아,SEORIM INDONESIA,"JL. PAHLAWAN NO. 1 RT 01,01 KEL. CINANGKA KEC. SAWANGAN DEPOK 16516, INDONESIA",-6.3696473545713,106.766963367301,16516,생산법인,.,,C. 제조업,섬유제품 제조업 (의복 제외)
동남아대양주,인도네시아,자카르타,서울 니꼬 인도네시아,SEOUL NIKKO INDONESIA,"LINDETEVES TRADE CENTER LT.GF 2 BLOK RA 70 JL. HAYAM WURUK NO.127 JAKARTA BARAT-11180, INDONESIA",-6.14613756401561,106.816586084495,11180,생산법인,.,,C. 제조업,기타 제품 제조업
동남아대양주,인도네시아,자카르타,서울프레스인도네시아,SEOUL PRESS INDONESIA,"KAWASAN INDUSTRI JABABEKA, JL. JABABEKA LL G BLOK CC NO. 22~24, KEL. PASIR GOMBONG, KEC. CIKARANG UTARA, INDONESIA",-6.28915333637709,107.134968667301,17530,생산법인,.,,C. 제조업,기타 기계 및 장비 제조업
동남아대양주,인도네시아,자카르타,서원의류제조(주),PT. SEOWON MANUFACTURING GARMENT,"JL KASIR2 NO18 DESA GEMBOR, PASIR RAYA, JATIUWUNG TANGERANG 15135, INDONESIA",-6.18348082738797,106.564951053808,15135,생산법인,단독투자,,C. 제조업,섬유제품 제조업 (의복 제외)
동남아대양주,인도네시아,자카르타,서주,SEOJU,"KAWASAN INDUSTRY DELTA SILICON 5. JL, KENARI 1 BLOK G NO 22, LIPPO CIKARANG BEKASI 17530, INDONESIA",-6.3563630451579,107.161502553809,17530,생산법인,.,,C. 제조업,기타 제품 제조업
동남아대양주,인도네시아,자카르타,서진엔지너링,SEOJIN ENGINEERING,"KP. PABUARAN RT. 04,04 DS. PEUSAR, KEC. PANONGAN, KAB. TANGERANG 15136, INDONESIA",-6.23629755513894,106.532420140316,15136,생산법인,.,,C. 제조업,전기장비 제조업
동남아대양주,인도네시아,자카르타,석세스 아바디 우따마,SUKSES ABADI UTAMA,"JL. BARU PEMDA TIGARAKSA KAWASAN MILLENIUM INDUSTRAL ESTATE RUKO BLOK J8 NO. 11,12, INDONESIA",-6.24212675652116,106.473477261681,15710,생산법인,.,,C. 제조업,"가죽, 가방 및 신발 제조업"
동남아대양주,인도네시아,자카르타,석세스지혜자야,SUKSES JIHE JAYA,"JL. KALIURANG KM 9, 9 DESA SARJONO HARJO NGAKLIK SLEMAN JOGJAKARTA, INDONESIA",-7.7279148856645,110.398876950117,55581,생산법인,.,,C. 제조업,섬유제품 제조업 (의복 제외)
동남아대양주,인도네시아,자카르타,선우가멘트인도네시아,SUNWOO GARMENT INDONESIA,"DUSUN II RT.05,RW.07 TELUKAN, GROGOL, SUKOHARJO, JAWA TENGAH 57552, INDONESIA",-7.61759404180228,110.827092529153,57552,생산법인,.,,C. 제조업,섬유제품 제조업 (의복 제외)
동남아대양주,인도네시아,자카르타,선진 에취제이,SUNJIN HJ,"JL. RAYA SERANG KM. 68 MODERN CIKANDE INDUSTRIAL ESTATE DS. NAMBO ILIR KEC. KIBIN KAB. SERANG, BANTEN 42186, INDONESIA",-6.18596815926713,106.341324894284,42186,생산법인,.,,C. 제조업,"가죽, 가방 및 신발 제조업"
동남아대양주,인도네시아,자카르타,성동일플라스틱,PT. SUNGDONGIL PLASTIK,"JL.RAYA SERANG KM.18, 8 KAWASAN INDUSTRI PURATI KENCANA ALAM KAV.16 RT.07 RW.01 SUKANEGARA, CIKUPA, TANGERANG, BANTEN, INDONESIA",-6.26908182162968,106.554735610988,15710,생산법인,M&A,,C. 제조업,"가죽, 가방 및 신발 제조업"
동남아대양주,인도네시아,자카르타,성림 케이칼,SUNG LIM CHEMICAL,"JL. RAYA PEMDA TIGARAKSA KM.1.3 KP BOJONG RT.04 RW. 01 KEC. CIKUPA TANGERANG 15710, INDONESIA",-6.2322452246138,106.49773631148,15710,생산법인,.,,C. 제조업,화학 물질 및 화학제품 제조업 (의약품 제외)
동남아대양주,인도네시아,자카르타,성림 프린팅 인도네시아,SUNGLIM PRINTING INDONESIA,"JL. IMAM BONJOL KM 2, 8 NO.228 KARAWACI TANGERANG, INDONESIA",-6.20765699378016,106.619085824972,15115,생산법인,.,,C. 제조업,섬유제품 제조업 (의복 제외)
동남아대양주,인도네시아,자카르타,성보자야,SUNG BO JAYA,"JL. KH UMAR, KP. RAWAILAT RT.03,09, DS. DAYEUH, CILEUNGSI, BOGOR, JAWA BARAT 16820, INDONESIA",-6.42284476240706,106.983181312921,16820,생산법인,.,,C. 제조업,섬유제품 제조업 (의복 제외)
동남아대양주,인도네시아,자카르타,성신인도네시아,SUNG SHIN INDONESIA,"JL. RAYA NAROGONG KM 6 BEKASI TIMUR 17116, INDONESIA",-6.35603327653758,106.977375149451,17116,생산법인,.,성신신소재,C. 제조업,섬유제품 제조업 (의복 제외)
동남아대양주,인도네시아,자카르타,성심인터내셔날,SUNG SHIM INTERNATIONAL,"RUKO PINANGSIA BLOK L36, LIPPO KARAWACI, TANGERANG, BANTEN 15139, INDONESIA",-6.2238502786081,106.618993596136,15139,생산법인,.,,C. 제조업,기타 제품 제조업
동남아대양주,인도네시아,자카르타,성우인도네시아,SUNGWOO INDONESIA,"JL. MAYJEND SUNGKONO GG. 16, DESA PRAMBANGAN KEC. KEBOMAS, GRESIK, JAWA TIMUR 61124, INDONESIA",-7.184465334657,112.624646808317,61124,생산법인,.,,C. 제조업,자동차 및 트레일러 제조업
동남아대양주,인도네시아,자카르타,성원버튼인도네시아,SUNGWON BUTTON INDONESIA,"JL. CARINGIN RT.001,002 BOJONG MENTENG, RAWA LUMBU, BEKASI TIMUR, INDONESIA",-6.29536185480941,106.998231976014,17116,생산법인,.,성원버튼,C. 제조업,섬유제품 제조업 (의복 제외)
동남아대양주,인도네시아,자카르타,성원인도네시아,SUNG WON INDONESIA,"JL. TANJUNGPURA NO.262 KARAWANG JAWA BARAT, INDONESIA",-6.23852226724719,107.279515224972,41316,생산법인,.,,C. 제조업,섬유제품 제조업 (의복 제외)
동남아대양주,인도네시아,자카르타,성원인도자야,SUNG WON INDOJAYA,"JL. RAYA PURWADADI RT 07 RW 01, DESA KALIANGSANA, KALIJATI, SUBANG, INDONESIA",-6.51694378307047,107.674549650639,41271,생산법인,.,,C. 제조업,기타 제품 제조업
동남아대양주,인도네시아,자카르타,성창인다,SUNGCHANG INDAH,"JL.RAYA CURUG KM 1.05 DS.KADU JAYA-TANGERANG, INDONESIA",-6.23409130467057,106.555153851308,15810,생산법인,.,,C. 제조업,인쇄 및 기록매체 복제업
동남아대양주,인도네시아,자카르타,성창인도네시아,SUNG CHANG INDONESIA,"JL. PERINTIS NO.8A MEWEK, KALIMANAH, PURBALINGGA, JAWA TENGAH, INDONESIA",-7.41130349658062,109.368224882653,53371,생산법인,.,성창프레스,C. 제조업,기타 제품 제조업
동남아대양주,인도네시아,자카르타,세라라스까우사부사나,SELARAS KAUSA BUSANA,"JL. CARINGIN RT.01,05 KEL. BOJONG MENTENG, KEC. RAWAH RUMBUH, BEKASI TIMUR 17117 JAWA BARAT, INDONESIA",-6.29488452954525,106.99404901148,17117,생산법인,.,,C. 제조업,섬유제품 제조업 (의복 제외)
동남아대양주,인도네시아,자카르타,세림인도네시아,SERIM INDONESIA,"JL. RAYA LEGOK, DESA CIJANTRA, KEC. PAGEDANGAN, TANGERANG, BANTEN, INDONESIA",-6.27766323803362,106.596353520737,15336,생산법인,.,세림티티시,C. 제조업,고무 및 플라스틱제품 제조업
동남아대양주,인도네시아,자카르타,세바인다,SHEBA INDAH,"JL.RAYA TUMARITIS RT.14,03 PURWADADI, SUBANG, JAWA BARAT 41261, INDONESIA",-6.45217990408095,107.693238114108,41261,생산법인,.,,C. 제조업,기타 제품 제조업
동남아대양주,인도네시아,자카르타,세뿔루 숨베르 아누그라,SEPULUH SUMBER ANUGERAH 2,"EQUITY TOWER 10TH FL. SUITE D, SCBD LOT 9, JL. JEND. SUDIRMAN KAV. 52-53, JAKARTA 12190, INDONESIA",-6.2264537870439,106.808583805925,12190,생산법인,.,,F. 건설업,
동남아대양주,인도네시아,자카르타,세아 스틸 인도네시아,SEAH STEEL INDONESIA,"K-LINK TOWER, 18TH FL. ZONE B JL. JEND. GATOT SUBROTO NO. 59 A, JAKARTA SELATAN 12950, INDONESIA",-6.24008605063813,106.834458738464,12950,"생산법인, 판매법인",.,,G. 도매 및 소매업,
동남아대양주,인도네시아,자카르타,세아정밀금속,SEAH PRECISION METAL INDONESIA,"JL. AKASIA 3, DELTA SILICON BLOK A-6 NO.7, SUKARESMI, CIKARANG SELATAN, BEKASI, JAWA BARAT, 17550, INDONESIA",-6.31812617570092,107.119473467301,17550,생산법인,.,,C. 제조업,금속 가공제품 제조업 (기계 및 가구 제외)
동남아대양주,인도네시아,자카르타,세양 인도네시아,SEYANG INDONESIA,"JL. RAYA PEUSAR NO. 18A CIKUPA TANGERANG 15710, INDONESIA",-6.23684022370738,106.516017052569,15710,생산법인,.,,C. 제조업,섬유제품 제조업 (의복 제외)
동남아대양주,인도네시아,자카르타,세양액티프웨어,SEYANG ACTIVEWEAR,"KP. CINTAKARYA RT. 013 RW. 005, KEL. CIKOPO KEC. BUNGURSARI - KAB. PURWAKARTA, JAWA BARAT 41181, INDONESIA",-6.43172560001172,107.495555326146,41181,생산법인,.,,C. 제조업,섬유제품 제조업 (의복 제외)
동남아대양주,인도네시아,자카르타,세연인도네시아,SEYON INDONESIA,"DESA CIKOPO, KEC. BUNGURSARI KAB. PURWAKARTA 41181, INDONESIA",-6.42866126872401,107.484462373437,41181,생산법인,.,세연,C. 제조업,섬유제품 제조업 (의복 제외)
동남아대양주,인도네시아,자카르타,세영인더스트리,SEYOUNG INDUSTRY,"KP CIBEUNYING RT 18, RW 08 DESA WANTILAN, KECAMATAN CIPEUNDEUY, KABUPATAN SUBANG, JAWA BARAT 41272, INDONESIA",-6.55096321900214,107.672270844406,41272,생산법인,.,,C. 제조업,섬유제품 제조업 (의복 제외)
동남아대양주,인도네시아,자카르타,세진 레스따리 퓨니튜르,SEJIN LESTARI FURNITURE,"GF & UG NO.1, GRAND SERPONG MALL. JL. MH. THAMRIN KM 2, 7, KEBON NANAS, TANGERANG, INDONESIA",-6.22198760876521,106.632516704074,15143,생산법인,.,,C. 제조업,가구 제조업
동남아대양주,인도네시아,자카르타,세진 메가 인두스트리,SEJIN MEGAH INDUSTRI,"GF & UG NO.1, GRAND SERPONG MALL. JL. MH. THAMRIN KM 2, 7, KEBON NANAS, TANGERANG, INDONESIA",-6.22198760876521,106.632516704074,15143,생산법인,.,,C. 제조업,기타 제품 제조업
동남아대양주,인도네시아,자카르타,세진 칩타 방운,SEJIN CIPTA BANGUN,"GF & UG NO.1, GRAND SERPONG MALL. JL. MH. THAMRIN KM 2, 7, KEBON NANAS, TANGERANG, INDONESIA",-6.22198760876521,106.632516704074,15143,생산법인,.,,C. 제조업,기타 제품 제조업
동남아대양주,인도네시아,자카르타,세진 코포래션,SEJIN GLOBAL INDONESIA (SEJIN CORPORATION),"JL. RAYA SERANG KM24.5 KP. JAHA RT01,RW01 DS. SENTUL JAYA, KEC. BALARAJA, KAB. TANGERANG, BANTEN 15610, INDONESIA",-6.22198760876521,106.632516704074,15610,생산법인,.,Sejin Corporation LTD.,C. 제조업,섬유제품 제조업 (의복 제외)
동남아대양주,인도네시아,자카르타,세진글로벌인도네시아,SEJIN GLOBAL INDONESIA,"JL. RAYA SERANG KM 24, KP. JAHA RT01,RW01 DS. SENTUL JAYA, KEC. BALARAJA, KAB. TANGERANG, BANTEN 15610, INDONESIA",-6.20684671427836,106.447952444603,15610,생산법인,.,,C. 제조업,섬유제품 제조업 (의복 제외)
동남아대양주,인도네시아,자카르타,소로콘인더스트리,SOLOCONE INDUSTRY,"JL. TAMBAK AJI TIMUR NO.3, TAMBAKAJI, KEC. NGALIYAN, SEMARANG, 50185, INDONESIA",-6.99334039104152,110.341391024978,50185,생산법인,.,,C. 제조업,기타 제품 제조업
동남아대양주,인도네시아,자카르타,소엔뻐르마따,SOEN PERMATA,"JL. ALTERNATIF CIBUBUR KM 10 CILEUNGSI BOGOR 16820, INDONESIA",-6.38328242266642,106.927984764264,16820,생산법인,.,,C. 제조업,기타 제품 제조업
동남아대양주,인도네시아,자카르타,소쿨 시스템 인도네시아,SOCOOL SYSTEM INDONESIA,"JL. SATRIO WIBOWO I, TLOGOSARI KULON, PEDURUNGAN, SEMARANG 50196, INDONESIA",-6.98294059003419,110.45636488265,50196,생산법인,.,,C. 제조업,"전자 부품, 컴퓨터, 영상, 음향 및 기통신장비 제조업"
동남아대양주,인도네시아,자카르타,솔프잇,SOLVE IT,"KP.CIOMAS RT 006 RW 004, DS.KARANG MUKTI, KEC. CIPEUNDEUY, KAB SUBANG, JAWA BARAT 41262, INDONESIA",-6.59424277110241,106.765354191034,41262,생산법인,.,,C. 제조업,섬유제품 제조업 (의복 제외)
동남아대양주,인도네시아,자카르타,송 인도 물리아,SONG INDO MULIA,"TAMAN CILEGON INDAH RUKO BLOK A1 NO 2A KEL. SUKMAJAYAA KEC. JOMBANG. KOTA CILEGON, INDONESIA",-6.01602468106808,106.075861657354,42422,서비스법인,.,,C. 제조업,기타 기계 및 장비 제조업
동남아대양주,인도네시아,자카르타,수광인도네시아,SUKWANG INDONESIA,"JL. RAYA CIKOPO KM2, KEC BUNGURSARI PURWAKARTA JAWA BARAT 41183, INDONESIA",-6.43788887328978,107.480275848592,41183,생산법인,.,,C. 제조업,섬유제품 제조업 (의복 제외)
동남아대양주,인도네시아,자카르타,수자원공사,K-WATER,"GEDUNG ARTHA GRAHA LT.23 JL. JEND. SUDIRMAN KAV. 52-53 JAKARTA 12190, INDONESIA",-6.22461916296656,106.81104096177,12190,서비스법인,.,K-Water,"S. 협회 및 단체, 수리 및 기타 개인 서비스업",
동남아대양주,인도네시아,자카르타,수출입은행,KOREA EXIMBANK,"MENARA MULIA 20TH FL. SUITE 2007, JL. JEND. GATOT SUBROTO KAV. 9-11, JAKARTA SELATAN 12930, INDONESIA",-6.22438442854939,106.816671714085,12930,서비스법인,.,한국수출입은행,"O. 공공 행정, 국방 및 사회보장 행정",
동남아대양주,인도네시아,자카르타,수치삔딱,SUCI PINTAK,"JL. TIPAR CAKUNG NO.7 RT.004,005 SEMPER BARAT, JAKARTA UTARA 14130, INDONESIA",-6.1300888057902,106.919156083566,14130,"생산법인, 서비스법인",.,,C. 제조업,섬유제품 제조업 (의복 제외)
동남아대양주,인도네시아,자카르타,순영텍인도네시아,SUNYOUNG TECH INDONESIA,"KAWASAN INDUSTRI MILLENIUM ESTATE F2,5 PEUSAR JL.BARU PEMDA TIGARAKSA, PEUSAR-PANONGAN TANGERANG, INDONESIA",-6.24470332891873,106.497719321818,15710,생산법인,.,,C. 제조업,"가죽, 가방 및 신발 제조업"
동남아대양주,인도네시아,자카르타,순인도자야아바디,SUNINDO JAYA ABADI,"KOMP. GRAHA CEMPAKA MAS BLOK C NO.22, JL.LETJEN SUPRAPTO, JAKARTA PUSAT 10640, INDONESIA",-6.16596790406984,106.875767384516,10640,생산법인,.,,C. 제조업,섬유제품 제조업 (의복 제외)
동남아대양주,인도네시아,자카르타,숨브르막무르,SUMBER MAKMUR SUKSES,"PERGUDANGAN TUNAS BITUNG BLOK C5 NO.6, PASIR JAYA, CURUG, TANGERANG, INDONESIA",-6.24151519560159,106.896510192986,15710,생산법인,.,,C. 제조업,"가죽, 가방 및 신발 제조업"
동남아대양주,인도네시아,자카르타,스노겐인도네시아,SNOGEN INDONESIA,"JL. INDUSTRI CIMAREME III NO. 9A CIMERANG, PADALARANG, BANDUNG 40553, INDONESIA",-6.86922941061641,107.490294977204,40553,생산법인,.,스노겐코포레이션,C. 제조업,화학 물질 및 화학제품 제조업 (의약품 제외)
동남아대양주,인도네시아,자카르타,스마일 리서치 인도네시아,PT SMILE RESEARCH INDONESIA,"KOMPLEK RUKO ROXY MAS BLOK D.5 NO.6, RW.8, CIDENG, KECAMATAN GAMBIR, KOTA JAKARTA PUSAT, DAERAH KHUSUS IBUKOTA JAKARTA",-6.23931043925983,106.814638862298,10150,서비스법인,단독투자,,"S. 협회 및 단체, 수리 및 기타 개인 서비스업",
동남아대양주,인도네시아,자카르타,스뿔루 숨버르 아누그라,PT. SEPULUH SUMBER ANUGERAH,"JL. RAYA JAKARTA SERANG KM 68 KAWASAN MODERN INDUSTRI KAV.6 CIKANDE SERANG, INDONESIA",-6.1853141639732,106.341282673959,42186,서비스법인,단독투자,,F. 건설업,
동남아대양주,인도네시아,자카르타,스윔텍스 자야,SWIMTEX JAYA,"RUKO PARAMOUNT GLAZE 2 BLOK D NO. 20-21 GADING SERPONG KELAPA DUA TANGERANG, INDONESIA",-6.24341448276948,106.615840000396,15810,판매법인,.,,G. 도매 및 소매업,
동남아대양주,인도네시아,자카르타,스카이 테이프,PT. SKY TAPE INDONESIA,"JL. BUMIMAS I NO.12B KAWASAN INDUSTRI CIKUPA MAS, CIKUPA, TANGERANG, BANTEN, INDONESIA",-6.20701808354426,106.507916808326,15710,생산법인,단독투자,,C. 제조업,화학 물질 및 화학제품 제조업 (의약품 제외)
동남아대양주,인도네시아,자카르타,스카이폼,PT. SKYFOAM,"JL. RAYA CIKOPO, DESA CIKOPO KECAMATAN BUNGURSARI PURWAKARTA, INDONESIA",-6.42595044240244,107.489340004913,41181,생산법인,.,,C. 제조업,기타 제품 제조업
동남아대양주,인도네시아,자카르타,스타 코레네시아 라인,STAR KORENESIA LINE,"DS. CIHUNI, KEC. PAGEDANGAN, KAB. TANGERANG, INDONESIA",-6.25047722330315,106.6345831424,15332,서비스법인,.,,H. 운수 및 창고업,
동남아대양주,인도네시아,자카르타,스타렉스인도,STAREX INDO,"JL. INDUSTRI RAYA I NO.6 KOMP. PERGUDANGAN 3 IN 1 JATAKE, KEC. JATIUWUNG TANGERANG 15136, INDONESIA",-6.19895688311632,106.568939744743,15136,판매법인,.,,G. 도매 및 소매업,
동남아대양주,인도네시아,자카르타,스타캄 텍스,STARCAMTEX,"JL. RAYA CAKUNG CILINCING KAWASAN BERIKAT NUSANTARA BLOK C21 JAKARTA 14140 LNDONESIA, INDONESIA",-6.14516173937961,106.935847131072,.,생산법인,단독투자,,C. 제조업,"의복, 의복 액세서리 및 모피제품 제조업"
동남아대양주,인도네시아,자카르타,스타캠아빠렐인도네시아,STARCAM APPAREL INDONESIA,"DESA MINDAHAN RT 02,01 KEC. BATEALIT, KABUPATEN JEPARA - JAWA TENGAH 59461, INDONESIA",-6.63462464438576,110.750968946839,59461,생산법인,.,,C. 제조업,섬유제품 제조업 (의복 제외)
동남아대양주,인도네시아,자카르타,스타패션,STAR FASHION,"JL. SOEKARNO HATTA KM 30 NO.55, UNGARAN, SEMARANG, INDONESIA",-7.19629223572346,110.42530891744,50552,생산법인,.,,C. 제조업,섬유제품 제조업 (의복 제외)
동남아대양주,인도네시아,자카르타,스타피아,STARPIA,"JL.RAYA SADANG-SUBANG DESA CIKUMPAY, KECAMATAN CAMPAKA, KABUPATEN PURWAKARTA, JAWA BARAT 41181, INDONESIA",-6.50813544620003,107.45999284199,41181,생산법인,.,,C. 제조업,섬유제품 제조업 (의복 제외)
동남아대양주,인도네시아,자카르타,스탠더드 차터드 뱅크 인도네시아,STANDARD CHARTERED BANK INDONESIA,"MENARA STANDARD CHARTERED, JL. PROF. DR. SATRIO NO. 164, JAKARTA 12930, INDONESIA",-6.21778919031205,106.818860190827,12930,서비스법인,.,,K. 금융 및 보험업,
동남아대양주,인도네시아,자카르타,스트러워랜드,STRAWLAND,"JL.INDUSTRI RAYA III BLOK AE NO.2, KAWASAN INDUSTRY JATAKE, TANGERANG 15136, INDONESIA",-6.1911578163634,106.546613839619,15136,생산법인,.,,C. 제조업,고무 및 플라스틱제품 제조업
동남아대양주,인도네시아,자카르타,스패이스테크노로지,SPACE TECHNOLOGY,"JL. DAMAR BLOK F1 NO. 03, DELTA SILICON II, LIPPO CIKARANG, CIBATU, CIKARANG SELATAN-BEKASI, INDONESIA",-6.33912802783658,107.150282592798,17550,생산법인,.,,C. 제조업,기타 기계 및 장비 제조업
동남아대양주,인도네시아,자카르타,스폰지 스토리 인더스트리,SPONGE STORY INDUSTRY,"KAWASAN INDUSTRY CIKUPA MAS JL.TALAGA MAS RAYA NO26. TALAGA KEC.CIKUPA TANGERANG 15710, INDONESIA",-6.20771958875293,106.509155445994,15710,생산법인,.,,C. 제조업,고무 및 플라스틱제품 제조업
동남아대양주,인도네시아,자카르타,슬랄루 찐따 인도네시아,SELALU CINTA INDONESIA (KMK),"JL. LINGKAR SELATAN SALATIGA DUSUN TETEP RT 03 RW 03 RANDUACIR, ARGOMULYO, SALATIGA 50735, INDONESIA",-7.36481232101474,110.502185846591,50735,생산법인,.,,C. 제조업,"가죽, 가방 및 신발 제조업"
동남아대양주,인도네시아,자카르타,승택테크놀로지,SUNG TECHNOLOGY,"JL. RAYA NAROGONG KM 6 BEKASI TIMUR 17116, INDONESIA",-6.3557405455352,106.975611590108,17116,생산법인,.,,C. 제조업,기타 제품 제조업
동남아대양주,인도네시아,자카르타,시나르 뚱갈 아궁,SINAR TUNGGAL AGUNG,"GANDARIA 8 OFFICE TOWER, UNITE 2 A JL.SULTAN ISKANDAR MUDA JAKARTA SELATAN 12240, INDONESIA",-6.24310994754512,106.78341487712,12240,생산법인,.,,C. 제조업,기타 제품 제조업
동남아대양주,인도네시아,자카르타,시나르가야부사나,SINAR GAYA BUSANA,"JL. PERJUANGAN NO.39 RT 007 RW 004, DESA SUKADANAU, KEC. CIKARANG BARAT 17530 BEKASI, INDONESIA",-6.28324683778238,107.108166925105,17530,생산법인,.,,C. 제조업,섬유제품 제조업 (의복 제외)
